{"success":true,"branchList":[{"branchId":749,"branchName":"Formby","phoneNumber":"01704 873017","addressLine1":"Three Tuns Lane","city":"Formby","postCode":"L37 4AJ","latitude":53.5565,"longitude":-3.0581,"isEntertaining":false,"isGrocery":false,"branchDesc":"Standard Branch"},{"branchId":318,"branchName":"Menai Bridge","phoneNumber":"01248 712947","addressLine1":"Mona Road","city":"Menai Bridge","postCode":"LL59 5EA","latitude":53.22393,"longitude":-4.16636,"isEntertaining":false,"isGrocery":false,"branchDesc":"Standard Branch"},{"branchId":721,"branchName":"Walton-Le-Dale","phoneNumber":"01772 886066","addressLine1":"Capitol Centre","city":"Preston","postCode":"PR5 4AW","latitude":53.74882,"longitude":-2.67769,"isEntertaining":false,"isGrocery":false,"branchDesc":"Standard Branch"},{"branchId":803,"branchName":"Waitrose At Charnock Richard North","phoneNumber":"","addressLine1":"M6 motorway. Junction 27/28","city":"Chorley","postCode":"PR7 5LR","latitude":53.6298,"longitude":-2.69281,"isEntertaining":false,"isGrocery":false,"branchDesc":"Motorway Services"},{"branchId":842,"branchName":"Chester","phoneNumber":"01244 342900","addressLine1":"71 Boughton, Chester","city":"Chester","postCode":"CH3 5AF","latitude":53.19316,"longitude":-2.87799,"isEntertaining":false,"isGrocery":false,"branchDesc":"Standard Branch"},{"branchId":494,"branchName":"Altrincham","phoneNumber":"0161 929 7802","addressLine1":"10 Draybank Road (off Sinderland Road)","city":"Altrincham","postCode":"WA14 5ZL","latitude":53.40541,"longitude":-2.36511,"isEntertaining":false,"isGrocery":false,"branchDesc":"Standard Branch"}]}