{"page_meta":{"limit":50,"offset":1400,"total":1410},"results":[{"location":{"lat":"51.46126","lon":"-0.19635"},"name":"Wwth Osiers Gate Loc"},{"location":{"lat":"51.55312","lon":"-0.28867"},"name":"Wy Wembley Place Loc"},{"location":{"lat":"52.53677","lon":"-1.82731"},"name":"Wylde Grn Loc"},{"location":{"lat":"54.51031","lon":"-1.35452"},"name":"Yarm"},{"location":{"lat":"53.87052","lon":"-1.69258"},"name":"Yeadon Loc"},{"location":{"lat":"53.96331","lon":"-1.07449"},"name":"York"},{"location":{"lat":"53.96015","lon":"-1.08366"},"name":"York Davygate Loc"},{"location":{"lat":"53.95715","lon":"-1.08547"},"name":"York Micklegate Loc"},{"location":{"lat":"53.95800","lon":"-1.07996"},"name":"York Piccadilly Loc"},{"location":{"lat":"51.34318","lon":"-0.83037"},"name":"Ytly Haprdn Prde Loc"}]}
