{"page_meta":{"limit":50,"offset":250,"total":1410},"results":[{"location":{"lat":"53.75438","lon":"-0.37344"},"name":"Chanterlands Loc"},{"location":{"lat":"54.99081","lon":"-1.71256"},"name":"Chapel House Dr Loc"},{"location":{"lat":"53.39772","lon":"-2.63979"},"name":"Chapelford"},{"location":{"lat":"50.87158","lon":"-2.96602"},"name":"Chard"},{"location":{"lat":"51.48861","lon":"0.02618"},"name":"Charlton Riverside"},{"location":{"lat":"51.48662","lon":"0.03239"},"name":"Charlton Station Loc"},{"location":{"lat":"51.38420","lon":"0.52577"},"name":"Chatham"},{"location":{"lat":"53.39423","lon":"-2.21497"},"name":"Chdl Warwck Mall Loc"},{"location":{"lat":"53.37626","lon":"-2.21581"},"name":"Cheadle"},{"location":{"lat":"51.35809","lon":"-0.21541"},"name":"Cheam Loc"},{"location":{"lat":"51.27469","lon":"-2.77499"},"name":"Cheddar Roynon Way"},{"location":{"lat":"51.89012","lon":"-2.07879"},"name":"Cheltnhm Bath Rd Loc"},{"location":{"lat":"51.39127","lon":"-0.50351"},"name":"Chertsey"},{"location":{"lat":"51.70752","lon":"-0.61210"},"name":"Chesham"},{"location":{"lat":"51.36386","lon":"-0.29906"},"name":"Chessington Loc"},{"location":{"lat":"53.18305","lon":"-2.85560"},"name":"Chester"},{"location":{"lat":"54.85440","lon":"-1.58184"},"name":"Chester le St Loc"},{"location":{"lat":"53.25389","lon":"-1.41784"},"name":"Chesterfield"},{"location":{"lat":"50.84339","lon":"-0.75631"},"name":"Chichester"},{"location":{"lat":"52.91973","lon":"-1.24064"},"name":"Chilwell Loc"},{"location":{"lat":"51.61658","lon":"-0.01931"},"name":"Chingford"},{"location":{"lat":"51.46162","lon":"-2.11691"},"name":"Chip Statin Hill Loc"},{"location":{"lat":"51.44899","lon":"-2.14791"},"name":"Chippenham"},{"location":{"lat":"51.94143","lon":"-1.54596"},"name":"Chipping Norton"},{"location":{"lat":"51.70516","lon":"0.24463"},"name":"Chipping Ongar"},{"location":{"lat":"51.41882","lon":"0.06651"},"name":"Chislehurst"},{"location":{"lat":"51.49351","lon":"-0.26548"},"name":"Chiswick"},{"location":{"lat":"51.49301","lon":"-0.25232"},"name":"Chiswick Loc"},{"location":{"lat":"51.48412","lon":"-0.18458"},"name":"Chls Rdclffe Gds Loc"},{"location":{"lat":"53.47386","lon":"-1.48638"},"name":"Chpltn Wortly Rd Loc"},{"location":{"lat":"51.25960","lon":"-0.83945"},"name":"Chrh Ckhm Sdy Ln Loc"},{"location":{"lat":"50.74419","lon":"-1.74184"},"name":"Christchurch"},{"location":{"lat":"53.19909","lon":"-2.87599"},"name":"Chstr Faulknr St Loc"},{"location":{"lat":"53.19030","lon":"-2.89243"},"name":"Chstr Watergt St Loc"},{"location":{"lat":"51.64819","lon":"-0.14787"},"name":"Ckfsts Hddn Ct Loc"},{"location":{"lat":"51.46207","lon":"-0.13598"},"name":"Clapham Common"},{"location":{"lat":"51.46407","lon":"-0.13131"},"name":"Clapham High St Loc"},{"location":{"lat":"51.46350","lon":"-0.16905"},"name":"Clapham Junction Loc"},{"location":{"lat":"51.46551","lon":"-0.12925"},"name":"Clapham Nrth Stn Loc"},{"location":{"lat":"51.46367","lon":"-0.14091"},"name":"Clapham Old Town Loc"},{"location":{"lat":"52.61782","lon":"-1.11747"},"name":"Clarendon Park Loc"},{"location":{"lat":"51.87989","lon":"0.88579"},"name":"Clcstr Layer Road Lo"},{"location":{"lat":"51.80320","lon":"1.12429"},"name":"Clctn St Jhns Rd Loc"},{"location":{"lat":"53.55973","lon":"-0.03163"},"name":"Cleethorpes Loc"},{"location":{"lat":"51.44281","lon":"-2.85753"},"name":"Clevedon Hill Rd Loc"},{"location":{"lat":"51.88084","lon":"-2.05544"},"name":"Clhm Cirncstr Rd Loc"},{"location":{"lat":"51.46409","lon":"-2.61093"},"name":"Clifton Down"},{"location":{"lat":"54.52111","lon":"-1.55035"},"name":"Clifton Rd Loc"},{"location":{"lat":"52.54358","lon":"-1.38795"},"name":"Clifton Way Loc"},{"location":{"lat":"53.86920","lon":"-2.39165"},"name":"Clitheroe"}]}
