{"page_meta":{"limit":50,"offset":1150,"total":1410},"results":[{"location":{"lat":"51.14147","lon":"0.26051"},"name":"St Johns Rd Loc"},{"location":{"lat":"52.80862","lon":"-2.12154"},"name":"Stafford"},{"location":{"lat":"53.83131","lon":"-1.55499"},"name":"Stainbeck Rd Loc"},{"location":{"lat":"51.43252","lon":"-0.51965"},"name":"Staines"},{"location":{"lat":"52.66258","lon":"-0.46490"},"name":"Stamford"},{"location":{"lat":"51.57327","lon":"-0.07338"},"name":"Stamford Hill"},{"location":{"lat":"51.61741","lon":"-0.31076"},"name":"Stanmore"},{"location":{"lat":"51.88705","lon":"0.83040"},"name":"Stanway"},{"location":{"lat":"51.45074","lon":"-0.47557"},"name":"Stanwell Loc"},{"location":{"lat":"51.16911","lon":"0.55240"},"name":"Staplehurst"},{"location":{"lat":"51.37746","lon":"0.01106"},"name":"Station Approach Loc"},{"location":{"lat":"53.40691","lon":"-2.16093"},"name":"Stckpt Stn Gc Sq Loc"},{"location":{"lat":"51.47042","lon":"-0.12506"},"name":"Stckwl Clpham Rd Loc"},{"location":{"lat":"51.52213","lon":"-0.04679"},"name":"Stepny Green Stn Loc"},{"location":{"lat":"51.89468","lon":"-0.15891"},"name":"Stevenage"},{"location":{"lat":"55.68038","lon":"-4.51696"},"name":"Stewarton"},{"location":{"lat":"51.54687","lon":"-0.00770"},"name":"Stfrd East Vlge LL"},{"location":{"lat":"51.41577","lon":"-0.19324"},"name":"Sth Wmbldon Stn Loc"},{"location":{"lat":"51.42508","lon":"-0.14078"},"name":"Sthm Mitcham Lne Loc"},{"location":{"lat":"50.93384","lon":"-1.41912"},"name":"Sthmptn Hill Ln loc"},{"location":{"lat":"53.45235","lon":"-2.76962"},"name":"Sthns Milflds Rd Loc"},{"location":{"lat":"53.64820","lon":"-2.96929"},"name":"Sthpt Bispham Rd Loc"},{"location":{"lat":"56.12814","lon":"-3.94619"},"name":"Stirling"},{"location":{"lat":"51.49570","lon":"-0.07412"},"name":"Stkw Brmdsy Spa loc"},{"location":{"lat":"52.58966","lon":"-1.84707"},"name":"Stncfd Walsal Rd Loc"},{"location":{"lat":"53.36988","lon":"-2.58102"},"name":"Stockton Heath Loc"},{"location":{"lat":"51.47275","lon":"-0.12283"},"name":"Stockwell Statin Loc"},{"location":{"lat":"51.55979","lon":"-0.07383"},"name":"Stoke Newington Loc"},{"location":{"lat":"53.00223","lon":"-2.18577"},"name":"Stoke on Trent"},{"location":{"lat":"51.36255","lon":"-0.24503"},"name":"Stoneleigh Brdwy Loc"},{"location":{"lat":"52.92717","lon":"-1.27872"},"name":"Stplfrd Derby Rd Loc"},{"location":{"lat":"55.88282","lon":"-3.16412"},"name":"Straiton"},{"location":{"lat":"55.01040","lon":"-7.31528"},"name":"Strand Rd"},{"location":{"lat":"51.54408","lon":"0.01313"},"name":"Stratf Romfrd Rd Loc"},{"location":{"lat":"51.54189","lon":"-0.00106"},"name":"Stratford"},{"location":{"lat":"55.67406","lon":"-4.06770"},"name":"Strathaven"},{"location":{"lat":"51.57697","lon":"-1.72854"},"name":"Stratton"},{"location":{"lat":"51.41949","lon":"-0.12938"},"name":"Streatham Common"},{"location":{"lat":"51.44056","lon":"-0.12508"},"name":"Streatham Hill Loc"},{"location":{"lat":"51.43246","lon":"-0.12931"},"name":"Streatham Loc"},{"location":{"lat":"51.12718","lon":"-2.75499"},"name":"Street"},{"location":{"lat":"56.11848","lon":"-3.93562"},"name":"Strlng Kngs Mall Loc"},{"location":{"lat":"51.73959","lon":"-2.24034"},"name":"Stroud"},{"location":{"lat":"51.37922","lon":"-0.15580"},"name":"Sttn Hckbrdge Sn Loc"},{"location":{"lat":"51.49746","lon":"-0.08993"},"name":"Stwk Grt Dovr St Loc"},{"location":{"lat":"52.03686","lon":"0.74019"},"name":"Sudbury"},{"location":{"lat":"54.88475","lon":"-1.40776"},"name":"Sunderland"},{"location":{"lat":"54.92011","lon":"-1.42434"},"name":"Sunderland North"},{"location":{"lat":"53.43057","lon":"-1.27773"},"name":"Sunnyside Loc"},{"location":{"lat":"51.38904","lon":"-0.29738"},"name":"Surbitn Ewell Rd Loc"}]}
