{"page_meta":{"limit":50,"offset":100,"total":1410},"results":[{"location":{"lat":"53.37387","lon":"-3.04690"},"name":"Birkenhead"},{"location":{"lat":"52.48211","lon":"-1.89787"},"name":"Birmgham Colmore Loc"},{"location":{"lat":"54.63940","lon":"-1.69517"},"name":"Bishop Auckland"},{"location":{"lat":"51.86999","lon":"0.16171"},"name":"Bishops Stortford"},{"location":{"lat":"50.95410","lon":"-1.21500"},"name":"Bishops Waltham NH"},{"location":{"lat":"54.57802","lon":"-1.36070"},"name":"Bishopsgarth Loc"},{"location":{"lat":"51.48039","lon":"-2.58930"},"name":"Bishopston LOC"},{"location":{"lat":"53.95081","lon":"-1.08539"},"name":"Bishopthorpe Rd Loc"},{"location":{"lat":"50.91425","lon":"-1.36086"},"name":"Bitterne"},{"location":{"lat":"53.63304","lon":"-3.01222"},"name":"Bkdle Lvrpool Rd Loc"},{"location":{"lat":"55.95752","lon":"-3.24085"},"name":"Blackhall"},{"location":{"lat":"52.47444","lon":"-2.03988"},"name":"Blackheath"},{"location":{"lat":"52.21138","lon":"-2.19578"},"name":"Blackpole"},{"location":{"lat":"53.82118","lon":"-3.04752"},"name":"Blackpool"},{"location":{"lat":"51.45175","lon":"-0.15278"},"name":"Blhm Nghtngle Ln Loc"},{"location":{"lat":"53.73233","lon":"-2.52007"},"name":"Blkbn Pstn Od Rd Loc"},{"location":{"lat":"50.81876","lon":"-1.37232"},"name":"Blkfld Hmptn Lne Loc"},{"location":{"lat":"51.52378","lon":"-0.12317"},"name":"Blmbry Brnswk Ct Loc"},{"location":{"lat":"51.51920","lon":"-0.12185"},"name":"Blmsby Soton Rov Loc"},{"location":{"lat":"51.02322","lon":"-0.45188"},"name":"Blngshst High St LL"},{"location":{"lat":"53.95435","lon":"-1.09352"},"name":"Blossom St Loc"},{"location":{"lat":"56.59244","lon":"-3.33944"},"name":"Blrgwrie High St Loc"},{"location":{"lat":"52.39920","lon":"-1.65509"},"name":"Blsll Knlwyh Rd Loc"},{"location":{"lat":"51.48177","lon":"0.14478"},"name":"Blvdre Nuxley Rd Loc"},{"location":{"lat":"52.07820","lon":"-1.36960"},"name":"Bnbry Warwick Rd Loc"},{"location":{"lat":"53.56071","lon":"-1.50815"},"name":"Bnsly Rdbrook Rd Loc"},{"location":{"lat":"51.94815","lon":"-0.02009"},"name":"Bntngfrd High St Loc"},{"location":{"lat":"50.47364","lon":"-4.72673"},"name":"Bodmin"},{"location":{"lat":"50.79760","lon":"-0.66589"},"name":"Bognor Regis"},{"location":{"lat":"53.57262","lon":"-2.42942"},"name":"Bolton"},{"location":{"lat":"53.61465","lon":"-2.41779"},"name":"Bolton Darwen Rd Loc"},{"location":{"lat":"53.96367","lon":"-1.08611"},"name":"Bootham Loc"},{"location":{"lat":"51.50282","lon":"-0.09226"},"name":"Borough High St Loc"},{"location":{"lat":"51.49949","lon":"-0.08585"},"name":"Borough Long Lne Loc"},{"location":{"lat":"50.72654","lon":"-1.83735"},"name":"Boscombe"},{"location":{"lat":"51.49682","lon":"-0.32565"},"name":"Boston Manor Loc"},{"location":{"lat":"52.76975","lon":"-0.38230"},"name":"Bourne"},{"location":{"lat":"50.72438","lon":"-1.93766"},"name":"Bournemouth Rd Loc"},{"location":{"lat":"52.04037","lon":"-1.13817"},"name":"Brackley"},{"location":{"lat":"53.82943","lon":"-1.71188"},"name":"Bradford"},{"location":{"lat":"53.79433","lon":"-1.75090"},"name":"Bradford Broadwy Loc"},{"location":{"lat":"51.33645","lon":"-2.25220"},"name":"Bradford on Avon"},{"location":{"lat":"55.87266","lon":"-4.35690"},"name":"Braehead"},{"location":{"lat":"51.87891","lon":"0.55281"},"name":"Braintree"},{"location":{"lat":"53.35839","lon":"-2.16641"},"name":"Bramhall Loc"},{"location":{"lat":"51.92076","lon":"-0.43540"},"name":"Bramingham Park"},{"location":{"lat":"52.78776","lon":"-1.65114"},"name":"Branston Loc"},{"location":{"lat":"51.37607","lon":"1.30357"},"name":"Brchingtn Stn Rd Loc"},{"location":{"lat":"51.46384","lon":"-0.03909"},"name":"Brckly Mntle Crt Loc"},{"location":{"lat":"53.42028","lon":"-1.30692"},"name":"Brecks Loc"}]}
