{"page_meta":{"limit":50,"offset":550,"total":1410},"results":[{"location":{"lat":"52.90711","lon":"-0.63636"},"name":"Grantham"},{"location":{"lat":"53.37748","lon":"-3.12189"},"name":"Greasby Frkby Rd Loc"},{"location":{"lat":"53.42307","lon":"-2.97951"},"name":"Great Homer St"},{"location":{"lat":"52.61057","lon":"1.73032"},"name":"Great Yarmouth"},{"location":{"lat":"54.60019","lon":"-1.05725"},"name":"Greenstones Rd Loc"},{"location":{"lat":"51.47908","lon":"-0.01118"},"name":"Greenwich Hgh Rd Loc"},{"location":{"lat":"53.56992","lon":"-0.08429"},"name":"Grimsby"},{"location":{"lat":"51.48836","lon":"0.00411"},"name":"Grnch Banning St Loc"},{"location":{"lat":"51.48106","lon":"-0.02178"},"name":"Grnwch Creek Rd Loc"},{"location":{"lat":"51.48613","lon":"0.00948"},"name":"Grnwh Woolwch Rd Loc"},{"location":{"lat":"53.84364","lon":"-0.41279"},"name":"Grovehill Rd Loc"},{"location":{"lat":"51.11048","lon":"-0.75200"},"name":"Gshott Headly Rd Loc"},{"location":{"lat":"51.52192","lon":"-0.14334"},"name":"Gt Portland St Loc"},{"location":{"lat":"51.23570","lon":"-0.57198"},"name":"Guildford"},{"location":{"lat":"54.53105","lon":"-1.05795"},"name":"Guisborough"},{"location":{"lat":"51.50121","lon":"-0.22227"},"name":"H F Shprds Bsh R Loc"},{"location":{"lat":"53.33528","lon":"-3.09743"},"name":"H'wall Pensby Rd Loc"},{"location":{"lat":"51.52796","lon":"-0.08967"},"name":"Hackney City Rod Loc"},{"location":{"lat":"51.54420","lon":"-0.02360"},"name":"Hackny Wallis Rd Loc"},{"location":{"lat":"52.05889","lon":"1.13208"},"name":"Hadleigh Rd"},{"location":{"lat":"53.37599","lon":"-2.34433"},"name":"Hale Ashley Rd Loc"},{"location":{"lat":"53.72568","lon":"-1.85606"},"name":"Halifax"},{"location":{"lat":"51.94443","lon":"0.63619"},"name":"Halstead"},{"location":{"lat":"54.97173","lon":"-2.45874"},"name":"Haltwhistle"},{"location":{"lat":"55.78081","lon":"-4.05688"},"name":"Hamilton"},{"location":{"lat":"51.48472","lon":"-0.21979"},"name":"Hammersmith Loc"},{"location":{"lat":"50.79352","lon":"0.27975"},"name":"Hampden Park"},{"location":{"lat":"51.42637","lon":"-0.37767"},"name":"Hampton"},{"location":{"lat":"51.42677","lon":"-0.35573"},"name":"Hampton Hill Loc"},{"location":{"lat":"51.02172","lon":"-3.06107"},"name":"Hankridge Farm"},{"location":{"lat":"53.02615","lon":"-2.18274"},"name":"Hanley"},{"location":{"lat":"52.46017","lon":"-1.94599"},"name":"Harborne Hig St Loc"},{"location":{"lat":"51.77412","lon":"0.09291"},"name":"Harlow"},{"location":{"lat":"51.60606","lon":"0.21893"},"name":"Harold Hill Loc"},{"location":{"lat":"51.81611","lon":"-0.35593"},"name":"Harpenden"},{"location":{"lat":"51.57721","lon":"-0.09568"},"name":"Harringay"},{"location":{"lat":"53.98487","lon":"-1.49952"},"name":"Harrogate"},{"location":{"lat":"54.68817","lon":"-1.21938"},"name":"Hartlepool Loc"},{"location":{"lat":"50.92427","lon":"-0.14318"},"name":"Hassocks Kymr Rd Loc"},{"location":{"lat":"50.85759","lon":"0.57833"},"name":"Hastings St'n Pl Loc"},{"location":{"lat":"52.09184","lon":"0.41331"},"name":"Haverhill"},{"location":{"lat":"55.42551","lon":"-2.78908"},"name":"Hawick"},{"location":{"lat":"54.01642","lon":"-1.07631"},"name":"Haxby"},{"location":{"lat":"51.51545","lon":"-0.40324"},"name":"Hayes"},{"location":{"lat":"51.51140","lon":"-0.41258"},"name":"Hayes Cldhrbr Ln Loc"},{"location":{"lat":"50.78748","lon":"-0.97655"},"name":"Hayling Island Loc"},{"location":{"lat":"51.00646","lon":"-0.10670"},"name":"Haywards Heath"},{"location":{"lat":"53.38517","lon":"-2.12570"},"name":"Hazel Grove"},{"location":{"lat":"51.60161","lon":"0.65635"},"name":"Hckly Spa Rd Loc"},{"location":{"lat":"51.55002","lon":"-0.05426"},"name":"Hckny Lwr Clptn LL"}]}
