{"page_meta":{"limit":50,"offset":800,"total":1410},"results":[{"location":{"lat":"51.52481","lon":"-0.08741"},"name":"London City Road Loc"},{"location":{"lat":"51.71591","lon":"-0.28695"},"name":"London Colney"},{"location":{"lat":"51.51213","lon":"-0.18767"},"name":"London Queensway Loc"},{"location":{"lat":"52.39597","lon":"-1.98337"},"name":"Longbridge"},{"location":{"lat":"53.83552","lon":"-2.60666"},"name":"Longridge"},{"location":{"lat":"52.65305","lon":"1.18357"},"name":"Longwater"},{"location":{"lat":"50.94141","lon":"-1.44906"},"name":"Lords Hill"},{"location":{"lat":"52.77275","lon":"-1.21099"},"name":"Loughborough"},{"location":{"lat":"51.64334","lon":"0.05261"},"name":"Loughton"},{"location":{"lat":"51.60425","lon":"-0.02071"},"name":"Low Hall"},{"location":{"lat":"56.03589","lon":"-3.82092"},"name":"Lrbrt Knnrd Vill Loc"},{"location":{"lat":"51.97760","lon":"-0.22839"},"name":"Ltcwth Eastcheap Loc"},{"location":{"lat":"53.73680","lon":"-2.96258"},"name":"Lthm Clifton St Loc"},{"location":{"lat":"53.67774","lon":"-1.53381"},"name":"Lupset Loc"},{"location":{"lat":"51.88281","lon":"-0.42312"},"name":"Luton"},{"location":{"lat":"53.69719","lon":"-1.69869"},"name":"Lvrsdge Hsfld Rd Loc"},{"location":{"lat":"51.42844","lon":"-0.91386"},"name":"Lwr Erly Mdn Pl Loc"},{"location":{"lat":"51.46740","lon":"-0.22093"},"name":"Lwr Richmond Rd Loc"},{"location":{"lat":"51.43173","lon":"0.02104"},"name":"Lwshm Grv Pk Stn Loc"},{"location":{"lat":"51.42687","lon":"-0.05524"},"name":"Lwshm Sdnhm Rd Loc"},{"location":{"lat":"53.38528","lon":"-2.46787"},"name":"Lymm"},{"location":{"lat":"53.38091","lon":"-2.47772"},"name":"Lymm The Cross Loc"},{"location":{"lat":"50.83644","lon":"-0.36726"},"name":"Lyons Farm"},{"location":{"lat":"53.75341","lon":"-3.02988"},"name":"Lytham St Annes"},{"location":{"lat":"51.56910","lon":"-0.00815"},"name":"Lytn Midland Stn Loc"},{"location":{"lat":"51.56831","lon":"0.00959"},"name":"Lytnstn Chrh Lne Loc"},{"location":{"lat":"52.04689","lon":"-0.67885"},"name":"MK Brklands DC Loc"},{"location":{"lat":"53.26310","lon":"-2.13238"},"name":"Macclesfield"},{"location":{"lat":"51.52441","lon":"-0.71863"},"name":"Maidenhead"},{"location":{"lat":"51.27242","lon":"0.52781"},"name":"Maidstone"},{"location":{"lat":"54.13700","lon":"-0.79910"},"name":"Malton Loc"},{"location":{"lat":"53.13447","lon":"-1.19897"},"name":"Mansfield"},{"location":{"lat":"52.55030","lon":"0.09019"},"name":"March"},{"location":{"lat":"52.47686","lon":"-0.91750"},"name":"Market Harborough"},{"location":{"lat":"51.57171","lon":"-0.77777"},"name":"Marlow"},{"location":{"lat":"51.57101","lon":"-0.77581"},"name":"Marlow High St Loc"},{"location":{"lat":"50.38896","lon":"-4.08721"},"name":"Marsh Mills"},{"location":{"lat":"52.40176","lon":"-1.81910"},"name":"Marshall Lake"},{"location":{"lat":"51.76295","lon":"-0.30741"},"name":"Marshalswick Loc"},{"location":{"lat":"54.59235","lon":"-1.01997"},"name":"Marske Loc"},{"location":{"lat":"52.48008","lon":"-1.89580"},"name":"Martineau Place LL"},{"location":{"lat":"53.13855","lon":"-1.56024"},"name":"Matlock"},{"location":{"lat":"52.40430","lon":"-1.88513"},"name":"Maypole"},{"location":{"lat":"52.82598","lon":"-1.43066"},"name":"Mbourne Derby Rd LL"},{"location":{"lat":"53.48601","lon":"-2.24678"},"name":"Mchstr Greengate Loc"},{"location":{"lat":"53.46320","lon":"-2.22999"},"name":"Mchstr Oxford Rd Loc"},{"location":{"lat":"53.43341","lon":"-2.22922"},"name":"Mchstr Withingtn Loc"},{"location":{"lat":"51.51959","lon":"-0.72136"},"name":"Mdenhd King St Loc"},{"location":{"lat":"51.51648","lon":"-0.74324"},"name":"Mdenhd Wootn Way Loc"},{"location":{"lat":"51.26634","lon":"0.48474"},"name":"Mdstn Tnbrdge Rd Loc"}]}
