{"page_meta":{"limit":50,"offset":1350,"total":1410},"results":[{"location":{"lat":"51.42776","lon":"-0.87749"},"name":"Winnersh"},{"location":{"lat":"51.43357","lon":"-2.61964"},"name":"Winterstoke Rd"},{"location":{"lat":"50.74507","lon":"-1.87807"},"name":"Winton Loc"},{"location":{"lat":"51.77952","lon":"-1.48284"},"name":"Witney"},{"location":{"lat":"51.41788","lon":"-0.82486"},"name":"Wkgm Ashrdge Rd Loc"},{"location":{"lat":"52.46475","lon":"-2.15985"},"name":"Wllstn High St Loc"},{"location":{"lat":"52.94667","lon":"-1.23186"},"name":"Wlltn Brmcte Ln Loc"},{"location":{"lat":"52.58729","lon":"-2.17451"},"name":"Wlvhptn Brnth Rd Loc"},{"location":{"lat":"52.58589","lon":"-2.14729"},"name":"Wlvhptn Cmptn Rd Loc"},{"location":{"lat":"52.58623","lon":"-2.12220"},"name":"Wlvrhmtn Intrcng Loc"},{"location":{"lat":"51.49445","lon":"-0.12922"},"name":"Wmnstr Mrsham St Loc"},{"location":{"lat":"54.37773","lon":"-2.90631"},"name":"Wndrmr Main Rd Loc"},{"location":{"lat":"51.45990","lon":"-0.18873"},"name":"Wndswrth Old Yrk Loc"},{"location":{"lat":"51.44416","lon":"-0.16737"},"name":"Wnswth Bllvue Rd Loc"},{"location":{"lat":"51.43907","lon":"-0.19758"},"name":"Wnswth Merton Rd Loc"},{"location":{"lat":"51.31907","lon":"-0.56012"},"name":"Woking"},{"location":{"lat":"51.30339","lon":"-0.55171"},"name":"Woking Loc"},{"location":{"lat":"52.52657","lon":"-2.20791"},"name":"Wombourne"},{"location":{"lat":"51.59248","lon":"-0.10529"},"name":"Wood Grn"},{"location":{"lat":"51.78026","lon":"-0.43563"},"name":"Woodhall Farm"},{"location":{"lat":"53.37582","lon":"-2.86550"},"name":"Woolton"},{"location":{"lat":"51.49099","lon":"0.06372"},"name":"Woolwich"},{"location":{"lat":"51.49170","lon":"0.07040"},"name":"Woolwich Arsenal Loc"},{"location":{"lat":"52.09338","lon":"-0.52049"},"name":"Woottn Folkes Rd Loc"},{"location":{"lat":"51.54281","lon":"-1.90532"},"name":"Wootton Bassett"},{"location":{"lat":"51.37685","lon":"-0.23866"},"name":"Worcester Park Loc"},{"location":{"lat":"52.18721","lon":"-2.23358"},"name":"Worcester St Johns"},{"location":{"lat":"52.20420","lon":"-2.22664"},"name":"Worcs Barbrne Rd Loc"},{"location":{"lat":"53.31117","lon":"-1.14554"},"name":"Worksop"},{"location":{"lat":"53.30361","lon":"-1.12833"},"name":"Worksop Town Loc"},{"location":{"lat":"51.36176","lon":"-2.91110"},"name":"Worle"},{"location":{"lat":"50.83026","lon":"-0.39639"},"name":"Wort Ltlhmptn Rd Loc"},{"location":{"lat":"53.05728","lon":"-3.00832"},"name":"Wrexham"},{"location":{"lat":"54.89520","lon":"-1.49275"},"name":"Wsgtn Tl Frm Vil Loc"},{"location":{"lat":"51.50888","lon":"-0.12438"},"name":"Wsmtr The Strand Loc"},{"location":{"lat":"53.15065","lon":"-0.21840"},"name":"Wspa Tattrshl Rd Loc"},{"location":{"lat":"52.92727","lon":"-1.13052"},"name":"Wst Bfd Meltn Rd Loc"},{"location":{"lat":"51.52397","lon":"-0.20083"},"name":"Wstbrn Pk Hrw Rd Loc"},{"location":{"lat":"51.53974","lon":"0.69373"},"name":"Wstclf Hmlt Crt Loc"},{"location":{"lat":"51.54492","lon":"0.68757"},"name":"Wstclif Londn Rd Loc"},{"location":{"lat":"51.52073","lon":"-0.17077"},"name":"Wstmnstr Edgw Rd Loc"},{"location":{"lat":"51.52120","lon":"-0.15685"},"name":"Wstmr Bkr St Est Loc"},{"location":{"lat":"51.49572","lon":"-0.13570"},"name":"Wstmstr Rcstr Rw Loc"},{"location":{"lat":"51.40283","lon":"-0.36917"},"name":"Wt Msy Walton Rd Loc"},{"location":{"lat":"51.50474","lon":"-0.45892"},"name":"Wtdytn Grdn Vlge Loc"},{"location":{"lat":"55.04235","lon":"-1.44676"},"name":"Wtlybay Park Ave Loc"},{"location":{"lat":"51.48823","lon":"-0.15058"},"name":"Wtmnr Gatliff Rd Loc"},{"location":{"lat":"51.51550","lon":"-0.18846"},"name":"Wtmtr Qunswy Nth Loc"},{"location":{"lat":"51.50162","lon":"-0.10431"},"name":"Wtrlo Blkfrs Rd loc"},{"location":{"lat":"51.46009","lon":"-0.17727"},"name":"Wworth StJohns H Loc"}]}
