{"page_meta":{"limit":50,"offset":600,"total":1410},"results":[{"location":{"lat":"51.53559","lon":"-0.05736"},"name":"Hckny Mare St Loc"},{"location":{"lat":"51.57163","lon":"-0.08967"},"name":"Hckny Wdbery Dwn Loc"},{"location":{"lat":"53.82038","lon":"-1.58098"},"name":"Hdgly North Lane Loc"},{"location":{"lat":"51.16758","lon":"0.62264"},"name":"Headcorn Loc"},{"location":{"lat":"50.97014","lon":"0.25102"},"name":"Heathfield - High St"},{"location":{"lat":"54.99694","lon":"-1.57744"},"name":"Heaton Newcastle"},{"location":{"lat":"53.53804","lon":"-2.23668"},"name":"Heaton Park"},{"location":{"lat":"50.92003","lon":"-1.31322"},"name":"Hedge End"},{"location":{"lat":"53.73971","lon":"-0.21262"},"name":"Hedon"},{"location":{"lat":"50.09287","lon":"-5.26096"},"name":"Helston"},{"location":{"lat":"51.34201","lon":"0.57339"},"name":"Hempstead Valley"},{"location":{"lat":"51.58177","lon":"-0.24407"},"name":"Hendon"},{"location":{"lat":"51.53803","lon":"-0.90517"},"name":"Henley Loc"},{"location":{"lat":"52.05475","lon":"-2.72480"},"name":"Hereford"},{"location":{"lat":"51.36227","lon":"1.14791"},"name":"Herne Bay"},{"location":{"lat":"51.45336","lon":"-0.10134"},"name":"Herne Hill Loc"},{"location":{"lat":"51.79896","lon":"-0.08016"},"name":"Hertford"},{"location":{"lat":"51.72169","lon":"-1.23240"},"name":"Heyford Hill"},{"location":{"lat":"50.99131","lon":"-0.09973"},"name":"Hhth Wivlsfld Rd Loc"},{"location":{"lat":"51.55920","lon":"0.07527"},"name":"High Rd Ilford Loc"},{"location":{"lat":"51.63246","lon":"-0.75564"},"name":"High Wycombe"},{"location":{"lat":"51.64570","lon":"-0.11107"},"name":"Highlands Village"},{"location":{"lat":"51.57503","lon":"-0.14233"},"name":"Higte Archway Rd Loc"},{"location":{"lat":"52.53849","lon":"-1.37596"},"name":"Hinckley"},{"location":{"lat":"52.62458","lon":"-1.21614"},"name":"Hinckley Rd Loc"},{"location":{"lat":"51.95115","lon":"-0.27525"},"name":"Hitchin"},{"location":{"lat":"51.45293","lon":"-0.00103"},"name":"Hither Green Stn Loc"},{"location":{"lat":"51.56340","lon":"-0.09188"},"name":"Hkny Clisold Qtr Loc"},{"location":{"lat":"51.53027","lon":"-0.07700"},"name":"Hkny Hoxton Stn Loc"},{"location":{"lat":"51.54424","lon":"-0.05562"},"name":"Hkny Town Hall Loc"},{"location":{"lat":"53.20237","lon":"-2.35793"},"name":"Hlms Cpl The Sqe Loc"},{"location":{"lat":"51.48037","lon":"-0.37325"},"name":"Hlw Upr Suttn Ln Loc"},{"location":{"lat":"51.49329","lon":"-0.24352"},"name":"Hmrsmth King St Loc"},{"location":{"lat":"51.50248","lon":"-0.22711"},"name":"Hmsmth Gldhwk Rd Loc"},{"location":{"lat":"51.55103","lon":"0.19837"},"name":"Hnchrh Elm Pk Av loc"},{"location":{"lat":"51.58252","lon":"-0.23095"},"name":"Hndn Vivian Ave Loc"},{"location":{"lat":"51.46541","lon":"-0.37847"},"name":"Hnslw Staines Rd Loc"},{"location":{"lat":"51.76046","lon":"-0.00828"},"name":"Hoddesdon"},{"location":{"lat":"51.51742","lon":"-0.12065"},"name":"Holborn LL"},{"location":{"lat":"51.55355","lon":"-0.11378"},"name":"Holloway Road Loc"},{"location":{"lat":"53.57116","lon":"-1.78655"},"name":"Holmfrth Mkt Wlk Loc"},{"location":{"lat":"54.62671","lon":"-5.85655"},"name":"Holywood Exchange"},{"location":{"lat":"51.44940","lon":"-0.04459"},"name":"Honor Oak Pk St Loc"},{"location":{"lat":"51.36740","lon":"-0.30715"},"name":"Hook Road Chsgtn Loc"},{"location":{"lat":"54.76112","lon":"-1.31472"},"name":"Horden Loc"},{"location":{"lat":"51.55197","lon":"0.21880"},"name":"Hornch Suttns Ln Loc"},{"location":{"lat":"51.56309","lon":"0.21818"},"name":"Hornchurch"},{"location":{"lat":"51.58853","lon":"-0.11743"},"name":"Hornsey"},{"location":{"lat":"51.06083","lon":"-0.33213"},"name":"Horsham"},{"location":{"lat":"53.60035","lon":"-2.54691"},"name":"Horwich Loc"}]}
