{"page_meta":{"limit":50,"offset":150,"total":1410},"results":[{"location":{"lat":"51.62222","lon":"0.30257"},"name":"Brentwood"},{"location":{"lat":"52.59136","lon":"-0.28401"},"name":"Bretton"},{"location":{"lat":"50.86223","lon":"-0.13579"},"name":"Brghtn Carden Av Loc"},{"location":{"lat":"50.82365","lon":"-0.14239"},"name":"Brghtn North St Loc"},{"location":{"lat":"50.82124","lon":"-0.13631"},"name":"Brghtn Old Stein Loc"},{"location":{"lat":"50.84378","lon":"-0.15192"},"name":"Brghtn Prestn Pk Loc"},{"location":{"lat":"50.82681","lon":"-0.14221"},"name":"Brghtn Queens Rd Loc"},{"location":{"lat":"50.82468","lon":"-0.15037"},"name":"Brghtn WesternRd Loc"},{"location":{"lat":"52.19242","lon":"-1.70515"},"name":"Bridge St Loc"},{"location":{"lat":"51.55808","lon":"-1.81056"},"name":"Bridgemead"},{"location":{"lat":"51.53055","lon":"-3.57437"},"name":"Bridgend"},{"location":{"lat":"52.53652","lon":"-2.42405"},"name":"Bridgnorth"},{"location":{"lat":"51.13286","lon":"-2.99617"},"name":"Bridgwater"},{"location":{"lat":"53.70077","lon":"-1.77842"},"name":"Brighouse"},{"location":{"lat":"50.83100","lon":"-0.13821"},"name":"Brighton"},{"location":{"lat":"52.47650","lon":"-1.91287"},"name":"Brindley Pl Loc"},{"location":{"lat":"51.49845","lon":"-2.46999"},"name":"Bristol Lyde Grn Loc"},{"location":{"lat":"50.39232","lon":"-3.52160"},"name":"Brixham New Road Loc"},{"location":{"lat":"51.45483","lon":"-0.11399"},"name":"Brixton"},{"location":{"lat":"51.44692","lon":"-0.12454"},"name":"Brixton Hill Loc"},{"location":{"lat":"51.40892","lon":"-0.04192"},"name":"Brmly Bcknhm Rd Loc"},{"location":{"lat":"51.39095","lon":"-0.02803"},"name":"Brmly Upr Elm Rd Loc"},{"location":{"lat":"50.72636","lon":"-1.81493"},"name":"Brmth Sthbrn Grv Loc"},{"location":{"lat":"51.48846","lon":"-0.28809"},"name":"Brnfd Kew Brg Rd Loc"},{"location":{"lat":"51.46688","lon":"0.15811"},"name":"Brnhst Erith Rd Loc"},{"location":{"lat":"51.47357","lon":"-0.24886"},"name":"Brns High St Loc"},{"location":{"lat":"51.47052","lon":"-0.25533"},"name":"Brns White Hrt L Loc"},{"location":{"lat":"51.54762","lon":"-0.23510"},"name":"Brnt Wlsdn Hg Rd Loc"},{"location":{"lat":"51.45549","lon":"-0.97051"},"name":"Broad St"},{"location":{"lat":"50.85891","lon":"-1.17453"},"name":"Broadcut"},{"location":{"lat":"51.40666","lon":"0.01451"},"name":"Bromley"},{"location":{"lat":"51.40144","lon":"0.01661"},"name":"Bromley High St Loc"},{"location":{"lat":"51.49926","lon":"-0.16480"},"name":"Brompton Rd Loc"},{"location":{"lat":"51.31202","lon":"-0.62540"},"name":"Brookwood"},{"location":{"lat":"53.72751","lon":"-0.57346"},"name":"Brough Loc"},{"location":{"lat":"54.54314","lon":"-1.21591"},"name":"Broughton Ave Loc"},{"location":{"lat":"51.48859","lon":"-2.50284"},"name":"Brstl Badntn Rd Loc"},{"location":{"lat":"51.45819","lon":"-2.58680"},"name":"Brstl Broadmead Loc"},{"location":{"lat":"51.48108","lon":"-2.52818"},"name":"Brstl Fshpnds Rd Loc"},{"location":{"lat":"51.47084","lon":"-2.59362"},"name":"Brstl Gl'ster Rd Loc"},{"location":{"lat":"51.45273","lon":"-2.59640"},"name":"Brstl Hippodrome Loc"},{"location":{"lat":"51.45461","lon":"-2.52588"},"name":"Brstl Nags Hd Hl Loc"},{"location":{"lat":"51.45731","lon":"-2.59088"},"name":"Brstl Union St Loc"},{"location":{"lat":"51.46917","lon":"-2.61436"},"name":"Brstl Whtladies Loc"},{"location":{"lat":"51.46187","lon":"-2.49836"},"name":"Brstl Wrmly Hill Loc"},{"location":{"lat":"51.49059","lon":"-0.30232"},"name":"Brtrd Grt Wt Qtr Loc"},{"location":{"lat":"51.74806","lon":"-0.01865"},"name":"Brxbne High Rd Loc"},{"location":{"lat":"51.45542","lon":"-0.11964"},"name":"Brxtn Lambert Rd Loc"},{"location":{"lat":"51.46278","lon":"-0.11468"},"name":"Brxtn Station Loc"},{"location":{"lat":"50.73440","lon":"-1.81768"},"name":"Bscmb Waltham Rd Loc"}]}
