{"page_meta":{"limit":50,"offset":1050,"total":1410},"results":[{"location":{"lat":"53.41374","lon":"-2.08691"},"name":"Romiley Loc"},{"location":{"lat":"54.60245","lon":"-1.07608"},"name":"Roseberry Centre Loc"},{"location":{"lat":"51.91527","lon":"-2.58148"},"name":"Ross on Wye"},{"location":{"lat":"52.28576","lon":"-0.59484"},"name":"Rshdn Hgh St Sth Loc"},{"location":{"lat":"56.03707","lon":"-3.43807"},"name":"Rsyth Admrlty Rd Loc"},{"location":{"lat":"52.35078","lon":"-1.27391"},"name":"Rugby"},{"location":{"lat":"51.57551","lon":"-0.42610"},"name":"Ruislip High Str Loc"},{"location":{"lat":"51.50854","lon":"-3.13304"},"name":"Rumny Newport Rd Loc"},{"location":{"lat":"50.81775","lon":"-0.49521"},"name":"Rustington"},{"location":{"lat":"53.09189","lon":"-1.17724"},"name":"Rvshd Ntngham Rd Loc"},{"location":{"lat":"50.73125","lon":"-1.16175"},"name":"Ryde IOW Unin St Loc"},{"location":{"lat":"51.57899","lon":"0.62034"},"name":"Rylgh Estwood Rd Loc"},{"location":{"lat":"51.41056","lon":"-0.22976"},"name":"Ryns Pk Wrple Rd Loc"},{"location":{"lat":"54.97264","lon":"-1.76457"},"name":"Ryton Loc"},{"location":{"lat":"51.55419","lon":"0.55858"},"name":"S Benflt High Rd Loc"},{"location":{"lat":"52.54956","lon":"-1.84185"},"name":"S Cdfld Bldmr Rd Loc"},{"location":{"lat":"51.39585","lon":"-0.06904"},"name":"S Nrwd Prtlnd Rd Loc"},{"location":{"lat":"54.98192","lon":"-1.43100"},"name":"S shld Stnhpe Rd Loc"},{"location":{"lat":"51.54065","lon":"0.73043"},"name":"S'end S'chrch Rd Loc"},{"location":{"lat":"50.78427","lon":"-1.08859"},"name":"SSea Palmrstn Rd Loc"},{"location":{"lat":"53.42610","lon":"-2.32338"},"name":"Sale"},{"location":{"lat":"53.65705","lon":"-1.84385"},"name":"Salendine Nook"},{"location":{"lat":"53.47702","lon":"-2.26789"},"name":"Salford"},{"location":{"lat":"51.07010","lon":"-1.79902"},"name":"Salisbury"},{"location":{"lat":"54.58370","lon":"-0.97482"},"name":"Saltburn"},{"location":{"lat":"55.63565","lon":"-4.79118"},"name":"Saltcoats"},{"location":{"lat":"54.54963","lon":"-1.23308"},"name":"Saltersgill Loc"},{"location":{"lat":"50.65420","lon":"-1.15448"},"name":"Sandown Loc"},{"location":{"lat":"54.27909","lon":"-0.41291"},"name":"Scarborough"},{"location":{"lat":"53.59198","lon":"-0.66033"},"name":"Scunthorpe"},{"location":{"lat":"54.84509","lon":"-1.33886"},"name":"Seaham Loc"},{"location":{"lat":"54.66266","lon":"-1.44626"},"name":"Sedgefield"},{"location":{"lat":"53.51854","lon":"-2.27216"},"name":"Sedgley Park Loc"},{"location":{"lat":"50.88811","lon":"0.55012"},"name":"Sedlescombe Rd"},{"location":{"lat":"53.78469","lon":"-1.07137"},"name":"Selby"},{"location":{"lat":"52.44334","lon":"-1.93914"},"name":"Selly Oak Boulevard"},{"location":{"lat":"51.34241","lon":"-0.06280"},"name":"Selsdon"},{"location":{"lat":"54.65911","lon":"-1.19964"},"name":"Setn Crw Stn Lne Loc"},{"location":{"lat":"51.29630","lon":"0.19309"},"name":"Sevenoaks"},{"location":{"lat":"53.38587","lon":"-1.49461"},"name":"Sfld Barber Rd Loc"},{"location":{"lat":"53.31917","lon":"-1.50227"},"name":"Sfld Bradway Rd Loc"},{"location":{"lat":"53.37749","lon":"-1.50146"},"name":"Sfld Fulwood Rd Loc"},{"location":{"lat":"53.36281","lon":"-1.50845"},"name":"Sfld Greystones Loc"},{"location":{"lat":"53.59224","lon":"-1.40808"},"name":"Shafton Loc"},{"location":{"lat":"51.52951","lon":"0.78650"},"name":"Shbvns Nw Gsn Rd loc"},{"location":{"lat":"51.52662","lon":"-0.08405"},"name":"Shdch Old Street Loc"},{"location":{"lat":"53.41742","lon":"-1.50229"},"name":"Sheffield Wadsley Bg"},{"location":{"lat":"51.51953","lon":"-0.18035"},"name":"Sheldon Square Loc"},{"location":{"lat":"52.02717","lon":"-0.79046"},"name":"Shenley Church End"},{"location":{"lat":"51.50525","lon":"-0.22401"},"name":"Shepherds Bush G Loc"}]}
