{"results":[{"location":{"id":"4ba6617a-2d23-45c1-96f2-a6da7c6f63bd","name":"Brent Cross Hendon Way Superstore","geo":{"coordinates":{"longitude":-0.21467,"latitude":51.57416}}}},{"location":{"id":"4ba96ee1-840a-4b25-a405-bf41c555ac7d","name":"Walthamstow Forest Rd Express","geo":{"coordinates":{"longitude":-0.01653,"latitude":51.59015}}}},{"location":{"id":"4bc028f5-31b2-47ff-96fc-7878b7e24383","name":"Aldridge Paddock Ln Express","geo":{"coordinates":{"longitude":-1.92652,"latitude":52.59967}}}},{"location":{"id":"4bda7cf7-d1f9-4cf3-9dc8-0da7d0302517","name":"Iver Heath Esso Express","geo":{"coordinates":{"longitude":-0.53227,"latitude":51.53468}}}},{"location":{"id":"4be428b1-74f7-4995-83aa-cab4bf533898","name":"Leicester Hamilton Extra","geo":{"coordinates":{"longitude":-1.06993,"latitude":52.65276}}}},{"location":{"id":"4c30fbf4-339e-41ca-89cc-43699413c54f","name":"Allerton Bywater Express","geo":{"coordinates":{"longitude":-1.352897,"latitude":53.747357}}}},{"location":{"id":"4c60fdde-0ffc-46db-8530-5b77d052ab64","name":"Millbrae Rd Express","geo":{"coordinates":{"longitude":-4.27002,"latitude":55.82719}}}},{"location":{"id":"4c697d31-485e-4138-9918-5c92150b63e3","name":"Delamere St Chester Express","geo":{"coordinates":{"longitude":-2.89307,"latitude":53.19507}}}},{"location":{"id":"4c6b7602-fc87-4c9d-a701-2a1ef1424e72","name":"Hackney Upper Clapton Express","geo":{"coordinates":{"longitude":-0.05894,"latitude":51.56357}}}},{"location":{"id":"4c7f6035-bd08-4cef-a5d7-5fe9e49216f6","name":"Kingsteignton Superstore","geo":{"coordinates":{"longitude":-3.60195,"latitude":50.54091}}}},{"location":{"id":"4c8d5723-c4e2-4487-8a12-de9ba7e2e6fd","name":"Long Row Express","geo":{"coordinates":{"longitude":-1.15284,"latitude":52.95404}}}},{"location":{"id":"4ca1080d-830d-4bde-bc0d-37b59a563afc","name":"Yarm Eaglescliffe Superstore","geo":{"coordinates":{"longitude":-1.35854,"latitude":54.5179}}}},{"location":{"id":"4ca723ea-f026-4902-967b-a72a98fff4de","name":"Warley Hill Express","geo":{"coordinates":{"longitude":0.29856,"latitude":51.60867}}}},{"location":{"id":"4cf2dff6-d2bc-4f00-b466-ec31eadbd99a","name":"Chessington Express","geo":{"coordinates":{"longitude":-0.296222,"latitude":51.372416}}}},{"location":{"id":"4cf824ff-7583-4b7e-9089-280e15091a45","name":"Tempest Rd Express","geo":{"coordinates":{"longitude":-1.00801,"latitude":50.88727}}}},{"location":{"id":"4d04bc8d-11ef-4dbc-8352-1e918560e028","name":"Swindon Freshbrook Express","geo":{"coordinates":{"longitude":-1.84013,"latitude":51.55034}}}},{"location":{"id":"4d23dc5c-9644-4fa6-989e-d578ff1ff184","name":"Basford Esso Express","geo":{"coordinates":{"longitude":-1.17461,"latitude":52.9803}}}},{"location":{"id":"4d58a392-788c-4a6d-aaa8-1be427719ba6","name":"Warrington Man Rd Express","geo":{"coordinates":{"longitude":-2.5655,"latitude":53.39698}}}},{"location":{"id":"4d5dbbc0-5d74-4105-a626-eae500770df3","name":"Mortlake Express","geo":{"coordinates":{"longitude":-0.26634,"latitude":51.46763}}}},{"location":{"id":"4d673a63-1a3a-4f66-84a7-e3ac9dbcd786","name":"Walsall Extra","geo":{"coordinates":{"longitude":-1.98351,"latitude":52.58701}}}},{"location":{"id":"4d87f290-0d9b-42c0-ab1a-012996454c63","name":"Bolton Wigan Rd Esso Express","geo":{"coordinates":{"longitude":-2.45235,"latitude":53.5705}}}},{"location":{"id":"4db260f7-66e0-44fa-86df-d80b89125be1","name":"Deysbrook Barracks Superstore","geo":{"coordinates":{"longitude":-2.88868,"latitude":53.43479}}}},{"location":{"id":"4e1c6cc1-360d-41f3-94eb-63f6bdd94592","name":"Rochester Gravesend Rd Esso Express","geo":{"coordinates":{"longitude":0.48048,"latitude":51.40274}}}},{"location":{"id":"4e2fc81b-a623-4c0f-b78d-6759c0301257","name":"Flitwick Superstore","geo":{"coordinates":{"longitude":-0.49828,"latitude":52.00287}}}},{"location":{"id":"4e39e8fb-0c76-4ee9-a231-d5e4c25bd91d","name":"Lyneham Express","geo":{"coordinates":{"longitude":-1.96611,"latitude":51.50693}}}},{"location":{"id":"4e693d6f-584e-443e-bcdd-0c0010de5655","name":"Crewe Extra","geo":{"coordinates":{"longitude":-2.43793,"latitude":53.09449}}}},{"location":{"id":"4eb55b71-cea2-498f-ac8e-85df70f02fa1","name":"Butts Rd Express","geo":{"coordinates":{"longitude":0.2187,"latitude":51.57165}}}},{"location":{"id":"4ebc6455-6426-45aa-9f38-77f9538d2627","name":"Spring Grove Express","geo":{"coordinates":{"longitude":-0.34384,"latitude":51.47491}}}},{"location":{"id":"4eded24c-dd6c-4d39-ba2a-ec074aad5100","name":"Holborn Viaduct Express","geo":{"coordinates":{"longitude":-0.10408,"latitude":51.51671}}}},{"location":{"id":"4eefcec3-5248-4b49-b96e-16fd43ee47d6","name":"Campbeltown Metro","geo":{"coordinates":{"longitude":-5.60777,"latitude":55.42852}}}},{"location":{"id":"4f10c0bd-a02e-44a4-87d0-98398f6ed00c","name":"Strood Superstore","geo":{"coordinates":{"longitude":0.49148,"latitude":51.39516}}}},{"location":{"id":"4f1a68fe-33bf-48f4-966c-361bb7481dc4","name":"Bracknell North Superstore","geo":{"coordinates":{"longitude":-0.73137,"latitude":51.42678}}}},{"location":{"id":"4f55bb70-8857-4b5f-b42b-13b60e2ab28e","name":"Stokenchurch Express","geo":{"coordinates":{"longitude":-0.89627,"latitude":51.65819}}}},{"location":{"id":"4f562ab3-7404-4ae2-bd05-ab3b124f353c","name":"Hailsham South Rd Express","geo":{"coordinates":{"longitude":0.25224,"latitude":50.85904}}}},{"location":{"id":"4f5e9f15-b13d-4dea-bc3a-eec1431fa0f9","name":"Coventry Arena Extra","geo":{"coordinates":{"longitude":-1.49145,"latitude":52.44397}}}},{"location":{"id":"4f60cd8e-cb0c-4114-842a-09a97e5d123e","name":"Swindon Extra","geo":{"coordinates":{"longitude":-1.77045,"latitude":51.5678}}}},{"location":{"id":"4f6d1782-f56b-4802-a1f7-ec3a7c8b856e","name":"Alton Anstey Ln Express","geo":{"coordinates":{"longitude":-0.96901,"latitude":51.15992}}}},{"location":{"id":"4f7b792e-0b9f-4483-bec6-b9104db238b8","name":"Glastonbury Superstore","geo":{"coordinates":{"longitude":-2.73101,"latitude":51.14292}}}},{"location":{"id":"4fa3ce8f-06f4-4e8f-bc22-192169addf2d","name":"Staines Rd Express","geo":{"coordinates":{"longitude":-0.44057,"latitude":51.4222}}}},{"location":{"id":"4fa752e5-be66-44be-b039-7188d8538059","name":"Hoyland Superstore","geo":{"coordinates":{"longitude":-1.44213,"latitude":53.506}}}},{"location":{"id":"4fca1c45-16d2-4e82-a8bd-c23fdbc990f5","name":"Hinckley Superstore","geo":{"coordinates":{"longitude":-1.37307,"latitude":52.53536}}}},{"location":{"id":"4fe43a0d-4b64-4bcd-a17a-f107c1480108","name":"Liverpool Lord St Express","geo":{"coordinates":{"longitude":-2.98911,"latitude":53.40542}}}},{"location":{"id":"4fecc1cb-4a8f-402e-ae01-5e655bf5a479","name":"Leicester Fosse Esso Express","geo":{"coordinates":{"longitude":-1.15322,"latitude":52.63919}}}},{"location":{"id":"4ff3e43f-6b1b-4e0f-9ef8-3931f2871d98","name":"Ashvale Lysons Ave Express","geo":{"coordinates":{"longitude":-0.72301,"latitude":51.27238}}}},{"location":{"id":"5004dcf4-d6cb-43aa-be73-d7d10f5a052e","name":"Huntington Rd Express","geo":{"coordinates":{"longitude":-1.06845,"latitude":53.98378}}}},{"location":{"id":"500674c2-992f-404e-a53e-789a59ede950","name":"Midhurst Express","geo":{"coordinates":{"longitude":-0.73869,"latitude":50.98753}}}},{"location":{"id":"500b2fad-6115-41ea-b243-c5a40adff370","name":"Acton Express","geo":{"coordinates":{"longitude":-0.26043,"latitude":51.52275}}}},{"location":{"id":"501f889c-b18b-4f9d-99d6-0569e58be96b","name":"Bristol Filton Ave Express","geo":{"coordinates":{"longitude":-2.57393,"latitude":51.49562}}}},{"location":{"id":"5024a9a1-203a-4584-9a07-9d3783cee97b","name":"Leicester Hinckley Rd Express","geo":{"coordinates":{"longitude":-1.15396,"latitude":52.63265}}}},{"location":{"id":"503eed09-76cb-4f2d-9573-a97cc67701d6","name":"Worthing South Farm Rd Express","geo":{"coordinates":{"longitude":-0.37864,"latitude":50.8181}}}},{"location":{"id":"503f1622-81b0-4c39-9546-2956b33e1e4e","name":"Haywards Heath Walnut Park Express","geo":{"coordinates":{"longitude":-0.08117,"latitude":50.99692}}}},{"location":{"id":"5041611e-af30-48e8-b423-a254b2aaa925","name":"Ebbw Vale Superstore","geo":{"coordinates":{"longitude":-3.21461,"latitude":51.78636}}}},{"location":{"id":"5045dd3c-e3b6-4d84-9826-563dcbf3f1b8","name":"Glasgow Milngavie Superstore","geo":{"coordinates":{"longitude":-4.3149,"latitude":55.93974}}}},{"location":{"id":"5047aaf7-f729-4c4e-aef3-d92667c3081b","name":"Hailsham Superstore","geo":{"coordinates":{"longitude":0.25676,"latitude":50.86459}}}},{"location":{"id":"50529fb7-c0da-476d-b79b-1f95860f437e","name":"Sleaford Superstore","geo":{"coordinates":{"longitude":-0.4123,"latitude":53.00126}}}},{"location":{"id":"5057b3e8-964b-427c-97ea-8b655c257b2f","name":"High Wycombe South Esso Express","geo":{"coordinates":{"longitude":-0.76624,"latitude":51.61707}}}},{"location":{"id":"5059961a-6948-4444-98eb-bf6c068bbea7","name":"Newtownbreda Extra","geo":{"coordinates":{"longitude":-5.92068,"latitude":54.55024}}}},{"location":{"id":"5066e9fa-f738-4959-b8ac-5f564f14e2a1","name":"Coatbridge Extra","geo":{"coordinates":{"longitude":-4.02266,"latitude":55.8594}}}},{"location":{"id":"507555fb-b90b-4a04-9775-fa1fb280a05d","name":"Bispham Express","geo":{"coordinates":{"longitude":-3.03886,"latitude":53.85252}}}},{"location":{"id":"50878bd1-e242-4400-8992-4b5096c464f0","name":"Napiershall Express","geo":{"coordinates":{"longitude":-4.2714,"latitude":55.87616}}}},{"location":{"id":"508ced84-f27e-43d0-80a3-1b0c34a0e6bd","name":"Dumfries Peel Centre Superstore","geo":{"coordinates":{"longitude":-3.58171,"latitude":55.07524}}}},{"location":{"id":"50919855-06b6-42f8-aca8-863bf6d681f4","name":"Northampton Link Rd Express","geo":{"coordinates":{"longitude":-0.90935,"latitude":52.274}}}},{"location":{"id":"509a3e7d-6ecc-4691-bfdc-29c5aec13357","name":"Uckfield Superstore","geo":{"coordinates":{"longitude":0.09439,"latitude":50.9707}}}},{"location":{"id":"50a3d079-1979-4f9c-b357-2c7d60b423b7","name":"Commercial Rd Express","geo":{"coordinates":{"longitude":-0.05892,"latitude":51.51444}}}},{"location":{"id":"50bc1743-36e4-4578-b64b-cad15cf786a7","name":"Glenmoor Rd Bournemouth Express","geo":{"coordinates":{"longitude":-1.89228,"latitude":50.79288}}}},{"location":{"id":"50d202d5-0ad4-4d42-9542-1d0ccd919b8c","name":"Norwich Cromer Rd Express","geo":{"coordinates":{"longitude":1.27312,"latitude":52.66637}}}},{"location":{"id":"50dddbbc-3c9b-4c1b-a8db-64c15bd7ee2a","name":"Lytchett Matravers Express","geo":{"coordinates":{"longitude":-2.07787,"latitude":50.75822}}}},{"location":{"id":"50df87db-6bc6-4694-9d3a-babed2f14573","name":"Norwich Harford Bridge Superstore","geo":{"coordinates":{"longitude":1.27756,"latitude":52.59501}}}},{"location":{"id":"50f55c7d-7f36-4f99-bd06-3f9d1f12c945","name":"Fleetwood Express","geo":{"coordinates":{"longitude":-3.03318,"latitude":53.91367}}}},{"location":{"id":"512349b4-2a56-4287-954c-315d1b2a0029","name":"Withernsea Metro","geo":{"coordinates":{"longitude":0.03616,"latitude":53.7239}}}},{"location":{"id":"5149f503-05fe-479c-93a4-9bb09bc76942","name":"Broken Cross Macclesfield Express","geo":{"coordinates":{"longitude":-2.161,"latitude":53.25914}}}},{"location":{"id":"51de8bf3-3302-4152-ac6a-4725fedf21d3","name":"Winchmore Hill Esso Express","geo":{"coordinates":{"longitude":-0.09382,"latitude":51.6332}}}},{"location":{"id":"521fa428-d58a-43b4-82b8-104b3070eb13","name":"Cramlington Express","geo":{"coordinates":{"longitude":-1.584721,"latitude":55.095704}}}},{"location":{"id":"5226f23e-e828-4e49-8aed-2f5663fa55ef","name":"Ardwick Green Esso Express","geo":{"coordinates":{"longitude":-2.22381,"latitude":53.47037}}}},{"location":{"id":"524e8c80-4116-4af7-90b2-211c77d5eacf","name":"Poole Fleets Corner Extra","geo":{"coordinates":{"longitude":-1.98959,"latitude":50.74044}}}},{"location":{"id":"5293f499-3822-4e1a-8e29-72063f4758a0","name":"Plymouth Discovery Heights Express","geo":{"coordinates":{"longitude":-4.14123,"latitude":50.3742}}}},{"location":{"id":"52a67251-acea-4ca9-8983-05f8ff1573a7","name":"City Rd Express","geo":{"coordinates":{"longitude":-0.08698,"latitude":51.52298}}}},{"location":{"id":"52b9c73f-7281-4f7b-9bcf-0eb24a18b8c5","name":"Great Barr Express","geo":{"coordinates":{"longitude":-1.93969,"latitude":52.53504}}}},{"location":{"id":"52e2c9a6-3ac1-44e9-a147-6e8ab2f03fd3","name":"Gants Hill Express","geo":{"coordinates":{"longitude":0.06887,"latitude":51.57724}}}},{"location":{"id":"52f582d0-48bf-4813-b024-49107df933e1","name":"Cardenden Express","geo":{"coordinates":{"longitude":-3.26088,"latitude":56.14415}}}},{"location":{"id":"52fbb89d-111f-4c6a-a83f-9da24d42ee00","name":"Heywood York St Esso Express","geo":{"coordinates":{"longitude":-2.21326,"latitude":53.59335}}}},{"location":{"id":"5312a9fa-3d8d-467b-8edb-8f962d634413","name":"Craigavon Extra","geo":{"coordinates":{"longitude":-6.39398,"latitude":54.44576}}}},{"location":{"id":"53150924-6d6b-4c3c-8c1a-26628d0314ef","name":"Bedford Riverfield Dr Superstore","geo":{"coordinates":{"longitude":-0.42481,"latitude":52.14202}}}},{"location":{"id":"531a9e37-740d-47d3-8b83-9057977102fa","name":"St Austell Daniels Ln Superstore","geo":{"coordinates":{"longitude":-4.75937,"latitude":50.34012}}}},{"location":{"id":"53247371-f2b6-4a89-9b03-f5a15b7d0744","name":"Piccadilly York Express","geo":{"coordinates":{"longitude":-1.07853,"latitude":53.95695}}}},{"location":{"id":"5326532f-ed94-4548-b492-481fe7224af3","name":"Blythe Bridge Uttoxeter Express","geo":{"coordinates":{"longitude":-2.06094,"latitude":52.96675}}}},{"location":{"id":"53431aae-9ac5-45b3-98e5-0aed66e77565","name":"East Ham Pilgrims Way Express","geo":{"coordinates":{"longitude":0.05263,"latitude":51.53492}}}},{"location":{"id":"534ed7dc-7593-4746-8dcc-b9fd3cf77c61","name":"Swindon Metro","geo":{"coordinates":{"longitude":-1.78377,"latitude":51.56213}}}},{"location":{"id":"53676236-acfe-44bf-9333-695c1408d375","name":"Giffard Park Express","geo":{"coordinates":{"longitude":-0.744994,"latitude":52.073819}}}},{"location":{"id":"536a0d29-235c-4ca1-91a4-1cbe077ee37c","name":"Broadstairs Metro","geo":{"coordinates":{"longitude":1.44066,"latitude":51.35854}}}},{"location":{"id":"53745fac-6747-4f6f-a08a-d317900d4fda","name":"Heathhall Dumfries Esso Express","geo":{"coordinates":{"longitude":-3.58739,"latitude":55.09215}}}},{"location":{"id":"5379cdf0-1454-4d6f-9d19-23fd65016870","name":"High Wycombe Loudwater Superstore","geo":{"coordinates":{"longitude":-0.69261,"latitude":51.60481}}}},{"location":{"id":"53bbdc53-d495-48f4-8f95-0f3398c34f69","name":"South Wootton Express","geo":{"coordinates":{"longitude":0.4368,"latitude":52.78486}}}},{"location":{"id":"53d7cb20-a299-4fa6-a64c-86bba2e8ae9a","name":"Benllech Anglesey Express","geo":{"coordinates":{"longitude":-4.22607,"latitude":53.3219}}}},{"location":{"id":"54053ce1-5ea6-4691-a86c-dad043bb333b","name":"Redruth Extra","geo":{"coordinates":{"longitude":-5.26904,"latitude":50.22183}}}},{"location":{"id":"54171f31-6d5e-4095-8b07-da4333d7fab0","name":"Silksworth Rd Esso Express","geo":{"coordinates":{"longitude":-1.44094,"latitude":54.8712}}}},{"location":{"id":"541c6a1d-31b1-47ba-969b-acedccfc3b1e","name":"Leamington Spa Metro","geo":{"coordinates":{"longitude":-1.5366,"latitude":52.29263}}}},{"location":{"id":"542ce0da-2e65-4cf6-9445-c3ee868bc575","name":"Bedworth Extra","geo":{"coordinates":{"longitude":-1.47438,"latitude":52.48116}}}},{"location":{"id":"54541ac0-e47a-455d-bde2-502f913d5d18","name":"Oxford Banbury Rd Express","geo":{"coordinates":{"longitude":-1.26551,"latitude":51.77823}}}},{"location":{"id":"548ba870-b2e3-4c06-9ff3-051d8e2c0270","name":"Douglas Isle Of Man Superstore","geo":{"coordinates":{"longitude":-4.48897,"latitude":54.14773}}}}]}