{"results":[{"location":{"id":"b37a0901-4c28-4e7d-8484-261fec84ee73","name":"Leicester Humberstone Express","geo":{"coordinates":{"longitude":-1.08937,"latitude":52.66557}}}},{"location":{"id":"b381631a-ab19-4ff3-a420-22c201aae0c7","name":"Lakeside Point Express","geo":{"coordinates":{"longitude":-1.24038,"latitude":53.13197}}}},{"location":{"id":"b39ca27a-0f16-47f7-a8e3-717b8f37ca3c","name":"Huthwaite Express","geo":{"coordinates":{"longitude":-1.30317,"latitude":53.12898}}}},{"location":{"id":"b3ab9beb-e2fc-4209-b0ce-2133d7c2d150","name":"Northampton Weston Favell Extra","geo":{"coordinates":{"longitude":-0.83559,"latitude":52.2567}}}},{"location":{"id":"b3b66511-eb90-49a7-a37a-7319ee5a1aad","name":"Cheetham Hill Superstore","geo":{"coordinates":{"longitude":-2.24382,"latitude":53.51339}}}},{"location":{"id":"b3c0bbe8-b289-4f23-a7c6-2a721d47f718","name":"Biggin Hill Express","geo":{"coordinates":{"longitude":0.03744,"latitude":51.30887}}}},{"location":{"id":"b3e5512f-4d54-4c36-92e3-272baf3ac818","name":"Stirling Express","geo":{"coordinates":{"longitude":-3.873925,"latitude":56.103631}}}},{"location":{"id":"b3e6540e-3815-40eb-a683-99e7b5b08661","name":"Heaton Moor Express","geo":{"coordinates":{"longitude":-2.18928,"latitude":53.41821}}}},{"location":{"id":"b3e6832e-24f5-4289-b81a-4208b93cad29","name":"Alderley Edge Express","geo":{"coordinates":{"longitude":-2.23606,"latitude":53.30254}}}},{"location":{"id":"b4032527-91b8-4ff6-a9ae-6c85cbac3cec","name":"Daventry Ashby Fields Express","geo":{"coordinates":{"longitude":-1.15875,"latitude":52.27383}}}},{"location":{"id":"b428113b-1fb8-4ee8-83d8-3c33afdbcbf8","name":"Liverpool Crosby Rd Express","geo":{"coordinates":{"longitude":-3.023,"latitude":53.48043}}}},{"location":{"id":"b461d75a-36f7-4826-9c28-ad68284984f5","name":"Canterbury New Dover Express","geo":{"coordinates":{"longitude":1.08706,"latitude":51.27547}}}},{"location":{"id":"b4659479-b401-42db-9ac6-80d66d10ccba","name":"Rockbank Place Express","geo":{"coordinates":{"longitude":-4.40157,"latitude":55.92415}}}},{"location":{"id":"b4696764-8f28-4da9-b016-536f387271b8","name":"Armley Express","geo":{"coordinates":{"longitude":-1.5891,"latitude":53.79807}}}},{"location":{"id":"b48d466c-938f-4ed0-b176-aff0329649e3","name":"Richmond Kew Rd Express","geo":{"coordinates":{"longitude":-0.29838,"latitude":51.46577}}}},{"location":{"id":"b4a2cb8a-cd8f-4b5a-b787-6dce38f28b13","name":"Grange Road Express","geo":{"coordinates":{"longitude":0.430651,"latitude":51.613351}}}},{"location":{"id":"b4c909d0-2b94-4cd2-8fea-8298e757d530","name":"Colney Hatch Extra","geo":{"coordinates":{"longitude":-0.1547,"latitude":51.60719}}}},{"location":{"id":"b4e5571d-5ecc-42b2-b0b2-aaf547011e8b","name":"Wembley Quadrant Express","geo":{"coordinates":{"longitude":-0.2857,"latitude":51.5571}}}},{"location":{"id":"b4fcc9a6-1157-47de-b904-4219f454e625","name":"High Rd Kilburn Express","geo":{"coordinates":{"longitude":-0.19175,"latitude":51.53695}}}},{"location":{"id":"b54c30a7-b1fb-45f6-b2bc-73539f5f5907","name":"Hackney Superstore","geo":{"coordinates":{"longitude":-0.05269,"latitude":51.54688}}}},{"location":{"id":"b5beaee4-ece8-4f9c-b77f-0fa5843dcae4","name":"Thornton Heath Superstore","geo":{"coordinates":{"longitude":-0.09895,"latitude":51.39889}}}},{"location":{"id":"b6057b6f-7bc6-4c25-a9ac-b12b392f557c","name":"Danbury Esso Express","geo":{"coordinates":{"longitude":0.58988,"latitude":51.7163}}}},{"location":{"id":"b638ac72-6624-4eae-901b-ad297b809228","name":"Sheffield Edward St Express","geo":{"coordinates":{"longitude":-1.47947,"latitude":53.38431}}}},{"location":{"id":"b6513861-fb19-4bd7-b53e-f91bb33e2a5d","name":"Hemel Hempstead Barnacres Express","geo":{"coordinates":{"longitude":-0.45412,"latitude":51.73352}}}},{"location":{"id":"b6b80b0c-437d-4759-a285-6e6fca6e4d95","name":"Haymarket Express","geo":{"coordinates":{"longitude":-3.22243,"latitude":55.94605}}}},{"location":{"id":"b70d3810-4940-4bd4-acb1-e0fd97539056","name":"Paddington Express","geo":{"coordinates":{"longitude":-0.17119,"latitude":51.51835}}}},{"location":{"id":"b71ed226-b1b6-48fb-8ccf-55b59263ab8f","name":"Welshpool Superstore","geo":{"coordinates":{"longitude":-3.14122,"latitude":52.65884}}}},{"location":{"id":"b72dbedc-43df-41ef-a6bc-91bf0d07855a","name":"Wheathampstead Express","geo":{"coordinates":{"longitude":-0.29333,"latitude":51.81295}}}},{"location":{"id":"b741a8d9-a19a-4b20-8ecb-c6f895fe0d61","name":"Cardiff Canton Express","geo":{"coordinates":{"longitude":-3.21038,"latitude":51.48228}}}},{"location":{"id":"b7442434-d757-4f96-a2fe-0c9e4296b31b","name":"Lincoln Extra","geo":{"coordinates":{"longitude":-0.51557,"latitude":53.24006}}}},{"location":{"id":"b74d635d-3cc1-4d9f-8143-e4ef5418d004","name":"Banstead Express","geo":{"coordinates":{"longitude":-0.19948,"latitude":51.32292}}}},{"location":{"id":"b75b7bd2-2d2c-4277-b2d5-01a0545934e6","name":"Preston Rd Wembley Express","geo":{"coordinates":{"longitude":-0.29513,"latitude":51.57072}}}},{"location":{"id":"b7789bb9-2dfa-47ed-af09-d7f9a07a210d","name":"Flint Express","geo":{"coordinates":{"longitude":-3.13275,"latitude":53.24877}}}},{"location":{"id":"b77d5769-f0fc-4ef2-877b-bd4eb1e9b9fb","name":"Elgin Extra","geo":{"coordinates":{"longitude":-3.32149,"latitude":57.65058}}}},{"location":{"id":"b796d07c-896b-4744-b48a-e3bb6385fcf6","name":"Irthlingborough Express","geo":{"coordinates":{"longitude":-0.61302,"latitude":52.32631}}}},{"location":{"id":"b7b35a3c-788a-4590-88f0-68a9836a6867","name":"Stourbridge Extra","geo":{"coordinates":{"longitude":-2.1478,"latitude":52.45714}}}},{"location":{"id":"b7c84365-8305-41c5-9aed-34d74093ad23","name":"Newtownards Extra","geo":{"coordinates":{"longitude":-5.68987,"latitude":54.58734}}}},{"location":{"id":"b7df5826-76e3-4196-b1ee-c926f18fa4bc","name":"Oxford Rd Express","geo":{"coordinates":{"longitude":-2.22705,"latitude":53.45868}}}},{"location":{"id":"b7f192bb-16f4-4e5c-bab0-29ee90e64592","name":"Cardonald Esso Express","geo":{"coordinates":{"longitude":-4.3584,"latitude":55.84543}}}},{"location":{"id":"b81c9253-e224-46a3-b2ca-ccc88e27709c","name":"Saffron Walden Superstore","geo":{"coordinates":{"longitude":0.2585,"latitude":52.02191}}}},{"location":{"id":"b826de70-3838-4c40-8660-43559464f639","name":"Clapham Oval Express","geo":{"coordinates":{"longitude":-0.11794,"latitude":51.47606}}}},{"location":{"id":"b82cfaf3-c9c8-4d2f-a1dd-64e22a4b04e9","name":"Bitterne Spring Rd Express","geo":{"coordinates":{"longitude":-1.3602,"latitude":50.90925}}}},{"location":{"id":"b83b57a0-5fcf-480b-a129-920b311928e7","name":"Queensbury Superstore","geo":{"coordinates":{"longitude":-1.84136,"latitude":53.76824}}}},{"location":{"id":"b845a6a5-618b-436d-922b-8bdef5a8af33","name":"Walton Hersham Rd Express","geo":{"coordinates":{"longitude":-0.40604,"latitude":51.3744}}}},{"location":{"id":"b858717e-6b8b-4635-8755-effb41364790","name":"Cardiff Capitol Metro","geo":{"coordinates":{"longitude":-3.17317,"latitude":51.48251}}}},{"location":{"id":"b85de8c5-0fbe-4f76-b581-c9124a6f8e01","name":"Great Junction St Express","geo":{"coordinates":{"longitude":-3.1758,"latitude":55.97329}}}},{"location":{"id":"b860338c-c831-4177-98de-5ba11de7781c","name":"Goole Boothferry Rd Superstore","geo":{"coordinates":{"longitude":-0.87647,"latitude":53.70637}}}},{"location":{"id":"b8616d76-58a0-46de-8cfd-a011f18a13f5","name":"Dagenham Oxlow Ln Express","geo":{"coordinates":{"longitude":0.15276,"latitude":51.55157}}}},{"location":{"id":"b887067a-833c-40f9-af28-821fbc9f0a42","name":"Fordingbridge Express","geo":{"coordinates":{"longitude":-1.78955,"latitude":50.92798}}}},{"location":{"id":"b8ddd40a-6f1c-4b2f-b5c3-98ef57eadb8a","name":"Winsford Delamere Express","geo":{"coordinates":{"longitude":-2.54427,"latitude":53.19194}}}},{"location":{"id":"b8e777ff-7c92-4541-a195-933a3da7abcc","name":"Kings Worthy Express","geo":{"coordinates":{"longitude":-1.30507,"latitude":51.1024}}}},{"location":{"id":"b8f911fa-697e-429f-9661-0aad11ce592c","name":"Mossley Rd Express","geo":{"coordinates":{"longitude":-2.08066,"latitude":53.4917}}}},{"location":{"id":"b9609c84-7fc6-42c2-90bd-61eaf32a7e9c","name":"Bournemouth Metro","geo":{"coordinates":{"longitude":-1.87975,"latitude":50.72073}}}},{"location":{"id":"b981067e-0283-4b37-a061-7593c519147b","name":"Hanley Extra","geo":{"coordinates":{"longitude":-2.18083,"latitude":53.02332}}}},{"location":{"id":"b9c270d3-c28b-46b2-a7c0-ef25f6b7b9ca","name":"Harrow College Rd Express","geo":{"coordinates":{"longitude":-0.33652,"latitude":51.57981}}}},{"location":{"id":"b9c6bc0b-e7ac-4415-81d8-160d03bcadc2","name":"Bromley Esso Express","geo":{"coordinates":{"longitude":0.00245,"latitude":51.39242}}}},{"location":{"id":"b9d20e11-e396-49ef-b14f-f57c6da4d5bc","name":"Grand Central Express","geo":{"coordinates":{"longitude":-1.89898,"latitude":52.47776}}}},{"location":{"id":"ba09d893-8847-4dd9-b1c8-cc2bb10cdd23","name":"Forest Hill Esso Express","geo":{"coordinates":{"longitude":-0.05953,"latitude":51.44082}}}},{"location":{"id":"ba212f1e-d07c-4951-aa9f-1fbb0aea7874","name":"Hythe Langdown Lawn Express","geo":{"coordinates":{"longitude":-1.40042,"latitude":50.86094}}}},{"location":{"id":"ba2fbb31-250f-408a-9a34-32449d46540a","name":"Shoreditch Express","geo":{"coordinates":{"longitude":-0.07759,"latitude":51.52451}}}},{"location":{"id":"ba4507d0-686b-4dae-9526-6e0b7ccbf377","name":"Langley Express","geo":{"coordinates":{"longitude":-0.53908,"latitude":51.49936}}}},{"location":{"id":"ba4d2f21-2f03-4c4b-b877-e110f3a93629","name":"Chorley Extra","geo":{"coordinates":{"longitude":-2.65859,"latitude":53.6561}}}},{"location":{"id":"ba8b54a9-9d44-4962-9a4c-10bd951459f6","name":"Hartshill Esso Express","geo":{"coordinates":{"longitude":-2.19982,"latitude":53.00969}}}},{"location":{"id":"badabee6-6ee3-44ce-9e57-626b768fd4bc","name":"Cholsey Express","geo":{"coordinates":{"longitude":-1.15309,"latitude":51.5753}}}},{"location":{"id":"bae2d571-4e1d-4f03-9742-9af9c0069440","name":"Hindley Green Express","geo":{"coordinates":{"longitude":-2.55229,"latitude":53.52484}}}},{"location":{"id":"baed1f7c-cc6c-4872-8500-32926a6363ce","name":"Tenterden Superstore","geo":{"coordinates":{"longitude":0.68564,"latitude":51.06599}}}},{"location":{"id":"baf881af-534b-41dc-860c-b9c533f9eda2","name":"Frogwell Esso Express","geo":{"coordinates":{"longitude":-2.13781,"latitude":51.45967}}}},{"location":{"id":"bb30549d-9867-4558-b0ec-f712dfef9af6","name":"Cardiff Maes Y Coed Express","geo":{"coordinates":{"longitude":-3.19457,"latitude":51.5201}}}},{"location":{"id":"bb3480ba-f535-41b4-b190-40580459bae0","name":"Cathays Terrace Express","geo":{"coordinates":{"longitude":-3.18174,"latitude":51.4959}}}},{"location":{"id":"bb39df40-59f2-4034-9ca3-c91458551bdb","name":"Basingstoke Metro","geo":{"coordinates":{"longitude":-1.08834,"latitude":51.26597}}}},{"location":{"id":"bb610feb-8cc3-4da1-8aa7-506659be4dab","name":"Sheffield Broomhill Express","geo":{"coordinates":{"longitude":-1.49991,"latitude":53.3782}}}},{"location":{"id":"bb66dba2-0eaa-4f53-9d26-875b6c76086a","name":"Castle Bromwich Express","geo":{"coordinates":{"longitude":-1.803,"latitude":52.50135}}}},{"location":{"id":"bb8849e3-0a0a-40fe-9c64-c51c8aaa1eea","name":"Hoddesdon Express","geo":{"coordinates":{"longitude":-0.01227,"latitude":51.75983}}}},{"location":{"id":"bb8c93d9-acfe-40da-ae53-a9066cea1c37","name":"Narborough Express","geo":{"coordinates":{"longitude":-1.21775,"latitude":52.57592}}}},{"location":{"id":"bb90f47c-ab5d-4b4d-8cd1-7e8dc551e8ad","name":"Strood Darnley Rd Express","geo":{"coordinates":{"longitude":0.47561,"latitude":51.3921}}}},{"location":{"id":"bba55247-7cdb-4be4-bf23-c871ca213e30","name":"Yate Station Rd Express","geo":{"coordinates":{"longitude":-2.42311,"latitude":51.54053}}}},{"location":{"id":"bbb3d654-6b16-46d4-9c89-5a06b5729f75","name":"Battersea Metro","geo":{"coordinates":{"longitude":-0.15241,"latitude":51.47469}}}},{"location":{"id":"bbb437d4-4b9f-4849-8294-9fd0e600f759","name":"Great Baddow Express","geo":{"coordinates":{"longitude":0.48865,"latitude":51.71407}}}},{"location":{"id":"bbbd8c01-856f-4a75-a624-d86b9e54ef78","name":"Lichfield Extra","geo":{"coordinates":{"longitude":-1.82104,"latitude":52.68518}}}},{"location":{"id":"bc101305-5fc8-49e2-ac55-564ede852d7b","name":"Portsmouth Kingston Rd Express","geo":{"coordinates":{"longitude":-1.07741,"latitude":50.8074}}}},{"location":{"id":"bc19784d-f22d-4b9b-a4e7-81bfc8b09bae","name":"South Norwood Hill Express","geo":{"coordinates":{"longitude":-0.0753,"latitude":51.3997}}}},{"location":{"id":"bc2659eb-9c8f-4d0b-a314-70dfa652302e","name":"Askew Rd Shepherds Bush Express","geo":{"coordinates":{"longitude":-0.24319,"latitude":51.50348}}}},{"location":{"id":"bc5bfcc8-38fe-45ca-9de7-743667593345","name":"Brandlesholme Express","geo":{"coordinates":{"longitude":-2.3137,"latitude":53.60873}}}},{"location":{"id":"bc672caf-678a-471a-bcf2-22ad5de02701","name":"Tower Bridge Express","geo":{"coordinates":{"longitude":-0.08337,"latitude":51.49594}}}},{"location":{"id":"bc6e0059-2ed8-4ad5-8c29-c3aa12981b6f","name":"Upton Park Express","geo":{"coordinates":{"longitude":0.03983,"latitude":51.53038}}}},{"location":{"id":"bc844f93-d592-42fb-bb82-729ebdcf6f19","name":"Leavesden Green Express","geo":{"coordinates":{"longitude":-0.40327,"latitude":51.70089}}}},{"location":{"id":"bc8932c8-2e76-4d85-8b44-caceb7fdb840","name":"Hedge End Express","geo":{"coordinates":{"longitude":-1.30241,"latitude":50.92616}}}},{"location":{"id":"bcb2000b-da78-4faf-ad77-88880e480df1","name":"Tewkesbury Metro","geo":{"coordinates":{"longitude":-2.15508,"latitude":51.99551}}}},{"location":{"id":"bcb53ad8-53ee-4212-8236-1ee0a3c7add7","name":"Telford Woodside Express","geo":{"coordinates":{"longitude":-2.466366,"latitude":52.63768}}}},{"location":{"id":"bcd02abf-f6e8-4e93-a81e-dc7c9dff7eff","name":"Reading Extra","geo":{"coordinates":{"longitude":-0.95608,"latitude":51.46005}}}},{"location":{"id":"bcd8cc79-e983-4d48-9943-a92b548ce8b8","name":"Uxbridge Metro","geo":{"coordinates":{"longitude":-0.48168,"latitude":51.54775}}}},{"location":{"id":"bce9f147-edab-465c-bcd6-463fafb6b7cd","name":"Bishopston Express","geo":{"coordinates":{"longitude":-2.59128,"latitude":51.47455}}}},{"location":{"id":"bcfbe7df-53aa-48c0-8cda-59a3e49ca748","name":"Rottingdean Express","geo":{"coordinates":{"longitude":-0.05806,"latitude":50.80352}}}},{"location":{"id":"bd07bb29-cf01-4586-9978-49033eaa50c7","name":"Luton Hitchin Rd Express","geo":{"coordinates":{"longitude":-0.39834,"latitude":51.90119}}}},{"location":{"id":"bd4386a5-5064-4c60-8022-14bfbb6b5414","name":"Hall Green Superstore","geo":{"coordinates":{"longitude":-1.83098,"latitude":52.41946}}}},{"location":{"id":"bd43d02f-f807-4a1a-aaf2-a3604289c249","name":"Brackley Superstore","geo":{"coordinates":{"longitude":-1.15175,"latitude":52.0231}}}},{"location":{"id":"bd5b6231-57f3-451e-9395-2f619a316589","name":"Stroud Green Metro","geo":{"coordinates":{"longitude":-0.11197,"latitude":51.56906}}}},{"location":{"id":"bd7a747f-cb84-479f-a44e-5436998854c2","name":"Kingswood Express","geo":{"coordinates":{"longitude":-2.49454,"latitude":51.45514}}}},{"location":{"id":"bd8622bf-c124-43b5-b1cf-1230add21f04","name":"Harringay Express","geo":{"coordinates":{"longitude":-0.09953,"latitude":51.58273}}}},{"location":{"id":"bd95d42d-5119-41ac-892e-9d2e66063df1","name":"Taunton High St Express","geo":{"coordinates":{"longitude":-3.10399,"latitude":51.01336}}}}]}