{"results":[{"location":{"id":"09f939cb-5f9f-49a0-8db4-9b96e4307579","name":"Dorking Reigate Rd Express","geo":{"coordinates":{"longitude":-0.31805,"latitude":51.2362}}}},{"location":{"id":"0a0ea549-a0fc-4ac5-970a-d31d9b234111","name":"Knowle Metro","geo":{"coordinates":{"longitude":-1.73654,"latitude":52.38919}}}},{"location":{"id":"0a15891d-d070-4314-924a-7899f56f7917","name":"Whitehaven Superstore","geo":{"coordinates":{"longitude":-3.58783,"latitude":54.55288}}}},{"location":{"id":"0a277616-f234-4caf-a285-77930ca0f143","name":"Willesden Ln Kilburn Express","geo":{"coordinates":{"longitude":-0.20279,"latitude":51.54087}}}},{"location":{"id":"0a486e31-2983-4282-8b63-a3cd300395e3","name":"Ealing Northfields Ave Express","geo":{"coordinates":{"longitude":-0.31722,"latitude":51.50361}}}},{"location":{"id":"0a8056c5-b869-412f-be03-f54748fcb02d","name":"Quinton Superstore","geo":{"coordinates":{"longitude":-1.99835,"latitude":52.45909}}}},{"location":{"id":"0a82c7b1-a52c-4bd6-a8af-00be5cb6b4dc","name":"Harrow Greenhill Way Express","geo":{"coordinates":{"longitude":-0.33336,"latitude":51.5817}}}},{"location":{"id":"0a8fbebe-08e3-4d61-b191-9f49fe15ec43","name":"Park Rd Extra","geo":{"coordinates":{"longitude":-2.96428,"latitude":53.38512}}}},{"location":{"id":"0a9a7bc7-738c-4afe-b254-f0ae416190c3","name":"Newcastle County Down Superstore","geo":{"coordinates":{"longitude":-5.89094,"latitude":54.22119}}}},{"location":{"id":"0ac18ef0-7250-448f-ba97-91b2e3dd1bd2","name":"Emsworth Express","geo":{"coordinates":{"longitude":-0.93663,"latitude":50.84856}}}},{"location":{"id":"0ad0da71-9d27-4665-a549-09b4c6c61306","name":"Bridgewater Extra","geo":{"coordinates":{"longitude":-6.27345,"latitude":54.33376}}}},{"location":{"id":"0b23fa29-3fcf-4aac-a4e8-3063b632afc9","name":"Feltham Superstore","geo":{"coordinates":{"longitude":-0.41315,"latitude":51.44377}}}},{"location":{"id":"0b2acbe5-fac1-4996-b69a-f68ef1dc1f6d","name":"Belfast Antrim Rd Superstore","geo":{"coordinates":{"longitude":-5.9375,"latitude":54.62046}}}},{"location":{"id":"0b5861a4-ad5a-41ed-be2a-fe0603b47eea","name":"Rushden Express","geo":{"coordinates":{"longitude":-0.59801,"latitude":52.28889}}}},{"location":{"id":"0b781548-bf1f-43f8-bd0b-4a1c4898d4c5","name":"Feltham Dukes Green Superstore","geo":{"coordinates":{"longitude":-0.41494,"latitude":51.45931}}}},{"location":{"id":"0b7ae57d-902b-41ac-b0d7-3f0aa0e4bfaa","name":"Stoke Newington High St Express","geo":{"coordinates":{"longitude":-0.07464,"latitude":51.55827}}}},{"location":{"id":"0b909e6d-1ec3-4154-b99e-dd8772943f40","name":"Bognor Regis Station Rd Express","geo":{"coordinates":{"longitude":-0.67581,"latitude":50.78586}}}},{"location":{"id":"0b952b61-6148-4773-aff7-46ebd00ccf3a","name":"Oxford Rd Express","geo":{"coordinates":{"longitude":-0.98668,"latitude":51.45505}}}},{"location":{"id":"0b9aeeb3-a76f-4027-b710-546d3b4ab181","name":"Enfield Esso Express","geo":{"coordinates":{"longitude":-0.04296,"latitude":51.66574}}}},{"location":{"id":"0ba0b4ce-de80-4d95-87ec-366353fa13b5","name":"Hornsey Express","geo":{"coordinates":{"longitude":-0.11339,"latitude":51.55223}}}},{"location":{"id":"0ba904e7-d35f-4c09-a589-1813161e76a0","name":"Golf Links Rd Express","geo":{"coordinates":{"longitude":-4.23596,"latitude":51.04213}}}},{"location":{"id":"0bd2fd16-c54a-4b4e-9602-9ba84fc5a8f5","name":"Leeds Harrogate Rd Esso Express","geo":{"coordinates":{"longitude":-1.53352,"latitude":53.82551}}}},{"location":{"id":"0bf19b8d-7fb6-4242-a11d-49a532c4eb25","name":"Boldmere Rd Express","geo":{"coordinates":{"longitude":-1.84106,"latitude":52.54692}}}},{"location":{"id":"0c009e1b-b7b7-47d8-bf78-4144a2ca2ced","name":"Bangor Extra","geo":{"coordinates":{"longitude":-4.15261,"latitude":53.20663}}}},{"location":{"id":"0c06409e-0c40-4a04-9497-cc250b8e87e1","name":"Middlewich Wheelock St Express","geo":{"coordinates":{"longitude":-2.44594,"latitude":53.19254}}}},{"location":{"id":"0c06fe4e-f641-4d2a-9407-e841b058259e","name":"Kensal Rise Express","geo":{"coordinates":{"longitude":-0.21918,"latitude":51.53366}}}},{"location":{"id":"0c126b09-e51b-40a7-a1fe-82bab09a6ee3","name":"Ely Cardiff Express","geo":{"coordinates":{"longitude":-3.24849,"latitude":51.47558}}}},{"location":{"id":"0c263953-2d5d-492b-b032-6589180f02de","name":"Dunfermline Rosyth Metro","geo":{"coordinates":{"longitude":-3.42676,"latitude":56.04378}}}},{"location":{"id":"0c2cba11-29eb-4a8e-833e-c2d7bd55efde","name":"Midsomer Norton Superstore","geo":{"coordinates":{"longitude":-2.49904,"latitude":51.29257}}}},{"location":{"id":"0c2f7b73-61f5-406c-b885-12e11a4498df","name":"Welwyn Garden City Express","geo":{"coordinates":{"longitude":-0.17245,"latitude":51.80192}}}},{"location":{"id":"0c36bf23-3ff2-467f-b715-bb57d340f3b0","name":"South Ockendon Esso Express","geo":{"coordinates":{"longitude":0.29774,"latitude":51.5245}}}},{"location":{"id":"0c3a0cf1-423d-4adb-afd3-b1f3c043510b","name":"Summerstown Garratt Express","geo":{"coordinates":{"longitude":-0.18549,"latitude":51.43379}}}},{"location":{"id":"0c441568-5bcd-4b7d-b2fb-31a6eaf3711d","name":"Swansea Marina Superstore","geo":{"coordinates":{"longitude":-3.94409,"latitude":51.61679}}}},{"location":{"id":"0c60124d-6be1-4183-8a22-da3483ddb0e8","name":"Battersea Express","geo":{"coordinates":{"longitude":-0.17106,"latitude":51.46934}}}},{"location":{"id":"0c601519-7174-4683-a002-cf10c66ebd2c","name":"Maid Marian Way Nottingham Express","geo":{"coordinates":{"longitude":-1.15341,"latitude":52.95215}}}},{"location":{"id":"0c96e7b7-1819-474b-a259-bf0a3fc578eb","name":"Larkfield Esso Express","geo":{"coordinates":{"longitude":0.43753,"latitude":51.29888}}}},{"location":{"id":"0ca90fbd-9947-4379-95e4-fd1ce58298d5","name":"Woodville Express","geo":{"coordinates":{"longitude":-1.53241,"latitude":52.76769}}}},{"location":{"id":"0cab045a-98eb-45ce-b6a5-2d8554d9d0c3","name":"Cheshunt Metro","geo":{"coordinates":{"longitude":-0.03415,"latitude":51.702}}}},{"location":{"id":"0cbcaa36-7e1a-42d4-bdc2-d4e415f1cc7f","name":"Sunderland Metro","geo":{"coordinates":{"longitude":-1.38444,"latitude":54.90574}}}},{"location":{"id":"0cd4709d-0a87-4f24-9deb-aaa5bfd7b018","name":"Kirby Frith Express","geo":{"coordinates":{"longitude":-1.19949,"latitude":52.63475}}}},{"location":{"id":"0cd4dd68-7016-44ef-a6a4-bf46848ff1c2","name":"Barry Holton Express","geo":{"coordinates":{"longitude":-3.26975,"latitude":51.40539}}}},{"location":{"id":"0cec2376-1bc5-400b-916b-368e055d55e2","name":"Colne Market St Express","geo":{"coordinates":{"longitude":-2.16601,"latitude":53.85714}}}},{"location":{"id":"0d0aa925-3efd-4791-a18c-a7e57234edbd","name":"Lilliput Express","geo":{"coordinates":{"longitude":-1.94614,"latitude":50.70874}}}},{"location":{"id":"0d13a5cf-bba3-42f3-bf76-758f80405237","name":"Notte St Express","geo":{"coordinates":{"longitude":-4.1417,"latitude":50.36821}}}},{"location":{"id":"0d1df52b-11b8-40ee-a054-f68cbe08001e","name":"Hendon Vivian Ave Express","geo":{"coordinates":{"longitude":-0.22846,"latitude":51.58278}}}},{"location":{"id":"0d553c8f-1383-4ee5-b3c6-80700f8280e1","name":"Milton Keynes Old Farm Park Express","geo":{"coordinates":{"longitude":-0.67881,"latitude":52.01494}}}},{"location":{"id":"0d924a74-db4e-446d-a229-21f0f6c27b0b","name":"Botley Express","geo":{"coordinates":{"longitude":-1.292148,"latitude":51.753443}}}},{"location":{"id":"0da0b77a-2a16-44f6-8f9d-b61e49155364","name":"Burton Upon Trent Superstore","geo":{"coordinates":{"longitude":-1.63403,"latitude":52.79663}}}},{"location":{"id":"0dcd2195-135a-4427-8885-83b92cb1aa6c","name":"Spinny Hill Express","geo":{"coordinates":{"longitude":-0.86408,"latitude":52.26653}}}},{"location":{"id":"0de87d90-16cf-483f-9823-1660dda140a7","name":"Rayleigh Rd Express","geo":{"coordinates":{"longitude":0.59411,"latitude":51.5945}}}},{"location":{"id":"0deb09cd-6c78-41c6-8f16-0248ed3f8eaf","name":"Stourbridge Esso Express","geo":{"coordinates":{"longitude":-2.13997,"latitude":52.44795}}}},{"location":{"id":"0df9f990-c40f-470f-84db-ca3e442b3eb6","name":"Sauchiehall St Metro","geo":{"coordinates":{"longitude":-4.26093,"latitude":55.86533}}}},{"location":{"id":"0e18ac7f-8ee3-4bad-adaa-04d3e1777542","name":"Stroud Superstore","geo":{"coordinates":{"longitude":-2.22404,"latitude":51.74701}}}},{"location":{"id":"0e2836c2-db6f-497a-822e-f87677239ff4","name":"Ruislip Field End Rd Express","geo":{"coordinates":{"longitude":-0.38113,"latitude":51.56094}}}},{"location":{"id":"0e33017b-8a95-4028-8e95-8c6df99a6e18","name":"Belsize Park Express","geo":{"coordinates":{"longitude":-0.16253,"latitude":51.54579}}}},{"location":{"id":"0e33a96b-4326-405e-9f88-80feeec73888","name":"Taunton E Reach Esso Express","geo":{"coordinates":{"longitude":-3.09325,"latitude":51.01572}}}},{"location":{"id":"0e4d3d37-5489-4a97-b027-4cc8ea2207d4","name":"Ossett Express","geo":{"coordinates":{"longitude":-1.58297,"latitude":53.68804}}}},{"location":{"id":"0e5c4466-1ae9-490f-b949-c3b4f0bdd041","name":"Upper Parliament Express","geo":{"coordinates":{"longitude":-1.14891,"latitude":52.95494}}}},{"location":{"id":"0e5d0b5a-ab08-48f4-85fb-4b2214a35941","name":"Carnegie St Superstore","geo":{"coordinates":{"longitude":-6.33282,"latitude":54.46104}}}},{"location":{"id":"0e785974-d0a2-4405-b572-2ff5a98c1242","name":"Poulner Express","geo":{"coordinates":{"longitude":-1.76933,"latitude":50.85542}}}},{"location":{"id":"0e86b1fd-1ff2-4d3c-848a-abeb17aa640a","name":"Herne Bay Express","geo":{"coordinates":{"longitude":1.1327,"latitude":51.36777}}}},{"location":{"id":"0e8eb779-0056-4586-b3ea-fa44c4d4494c","name":"Arbroath Superstore","geo":{"coordinates":{"longitude":-2.59196,"latitude":56.56226}}}},{"location":{"id":"0ec28e61-2698-4aee-bdce-39e0de45c735","name":"Paisley Rd Express","geo":{"coordinates":{"longitude":-4.27781,"latitude":55.8534}}}},{"location":{"id":"0ee1e3f4-3aff-4060-ac9b-989aa64b5ab7","name":"Bewdley Load St Express","geo":{"coordinates":{"longitude":-2.31477,"latitude":52.3763}}}},{"location":{"id":"0eecb477-0ca1-4105-add9-c55c52c5ef91","name":"Liverpool Prescot St Express","geo":{"coordinates":{"longitude":-2.96356,"latitude":53.41091}}}},{"location":{"id":"0eee26f3-446f-40e9-a7ed-52b74f4b78fd","name":"Mayfair Express","geo":{"coordinates":{"longitude":-0.14569,"latitude":51.50708}}}},{"location":{"id":"0f042f44-223e-4d70-b746-9f79acc8abfc","name":"Croydon Esso Express","geo":{"coordinates":{"longitude":-0.06286,"latitude":51.38158}}}},{"location":{"id":"0f16cbe6-6f51-44fd-8ff0-0f6a52e1f900","name":"Milford Surrey Express","geo":{"coordinates":{"longitude":-0.64138,"latitude":51.17193}}}},{"location":{"id":"0f1edfab-ff5d-43fd-b3d8-667577133081","name":"Hastings Havelock Rd Express","geo":{"coordinates":{"longitude":0.57823,"latitude":50.85637}}}},{"location":{"id":"0f57216e-60a0-4560-9faa-6c4a323130bb","name":"Stoke-on-trent Superstore","geo":{"coordinates":{"longitude":-2.2104,"latitude":52.99454}}}},{"location":{"id":"0f719c48-5eb0-40d9-92ba-3fd572d76e89","name":"Furze Platt Rd Express","geo":{"coordinates":{"longitude":-0.73725,"latitude":51.53432}}}},{"location":{"id":"0f7dae18-ab76-444c-88d5-c802dab003fe","name":"Calne Express","geo":{"coordinates":{"longitude":-2.01336,"latitude":51.44638}}}},{"location":{"id":"0f9c5279-4c03-4c12-bd1c-82dd46a4a408","name":"Bridgnorth Hermitage Esso Express","geo":{"coordinates":{"longitude":-2.41182,"latitude":52.53462}}}},{"location":{"id":"0fc315c6-2fc8-44ad-a206-67b8665bd055","name":"Sisters Rd Express","geo":{"coordinates":{"longitude":-0.1145,"latitude":51.56025}}}},{"location":{"id":"0fcb5bae-622c-4100-a024-17193024f4d9","name":"Stanningley Half Mile Ln Express","geo":{"coordinates":{"longitude":-1.65704,"latitude":53.80881}}}},{"location":{"id":"0fcf7058-9ce5-431a-830d-7c758f0b8a3f","name":"Gosport Forton Rd Express","geo":{"coordinates":{"longitude":-1.13955,"latitude":50.79992}}}},{"location":{"id":"0fe585fe-5d19-4945-aefb-2b004c68ad61","name":"Stukeley Meadows Express","geo":{"coordinates":{"longitude":-0.19514,"latitude":52.33757}}}},{"location":{"id":"0fea0bcf-82a0-49d0-8178-c80e3d688e5e","name":"South Plaza Isle Of Dogs Express","geo":{"coordinates":{"longitude":-0.01735,"latitude":51.50057}}}},{"location":{"id":"1001b5bb-ff3c-4c09-9938-e8e00df81296","name":"Ladbroke Grove Express","geo":{"coordinates":{"longitude":-0.21082,"latitude":51.51836}}}},{"location":{"id":"1010197f-9582-4dc9-aed9-84aa7ed55bfe","name":"Kennington Park Rd Express","geo":{"coordinates":{"longitude":-0.10513,"latitude":51.48959}}}},{"location":{"id":"103f134f-b4e3-4541-9bd6-a8e83b632cfb","name":"Scarborough Superstore","geo":{"coordinates":{"longitude":-0.40494,"latitude":54.27842}}}},{"location":{"id":"103f2ea6-823c-4829-b35a-90e896693f1d","name":"Penarth Superstore","geo":{"coordinates":{"longitude":-3.18541,"latitude":51.44561}}}},{"location":{"id":"105b945f-f278-4bf3-a74d-53561698229e","name":"Caerphilly Crossways Superstore","geo":{"coordinates":{"longitude":-3.21152,"latitude":51.58961}}}},{"location":{"id":"10b35051-ecad-4820-be49-eb0b0d7b9f15","name":"Westcliff-on-sea Rd Express","geo":{"coordinates":{"longitude":0.6825,"latitude":51.54584}}}},{"location":{"id":"10b6bece-3c65-4610-baf8-da87e2b71765","name":"Nottingham Canning Circus Express","geo":{"coordinates":{"longitude":-1.16617,"latitude":52.95791}}}},{"location":{"id":"10de4e69-4789-451e-842a-1a88a9e805e5","name":"Benton Rd Esso Express","geo":{"coordinates":{"longitude":-1.57861,"latitude":55.0073}}}},{"location":{"id":"11013c87-c7f8-4dfa-87fc-f1f58fe6ae14","name":"Lillington Express","geo":{"coordinates":{"longitude":-1.52135,"latitude":52.30305}}}},{"location":{"id":"11861da9-352c-4bd1-9034-90993782454b","name":"Eston Cleveland Extra","geo":{"coordinates":{"longitude":-1.16447,"latitude":54.57226}}}},{"location":{"id":"1187af4f-b8d9-42d9-8519-5287e369ffda","name":"Bexhill-on-sea Express","geo":{"coordinates":{"longitude":0.46164,"latitude":50.84058}}}},{"location":{"id":"1196b58a-e59a-470f-a2fa-fef4a6ca04e8","name":"Westbury On Trym Express","geo":{"coordinates":{"longitude":-2.61805,"latitude":51.49286}}}},{"location":{"id":"119b2166-1930-4808-b60d-3395effcf581","name":"Bicester Superstore","geo":{"coordinates":{"longitude":-1.16021,"latitude":51.89126}}}},{"location":{"id":"11a13e4f-b8de-4c96-9e34-ed8eb37b875a","name":"Skegness Superstore","geo":{"coordinates":{"longitude":0.33144,"latitude":53.14051}}}},{"location":{"id":"11df5d69-ebbf-4600-88df-99d44fd5b5c5","name":"Comber Express","geo":{"coordinates":{"longitude":-5.74467,"latitude":54.54992}}}},{"location":{"id":"12055ef8-dfad-4e0a-b75a-2f373c3f4fb2","name":"Romford Collier Row Metro","geo":{"coordinates":{"longitude":0.16392,"latitude":51.59892}}}},{"location":{"id":"122a682a-34df-45f3-92d7-0cd3c4326067","name":"Norwich Wales Rd Express","geo":{"coordinates":{"longitude":1.30163,"latitude":52.62921}}}},{"location":{"id":"123d0930-6ee9-4d67-ba50-18b916a3c459","name":"Ilford Superstore (Barkingside)","geo":{"coordinates":{"longitude":0.08192,"latitude":51.58605}}}},{"location":{"id":"124c14b4-3a05-4e54-9043-13c20120e285","name":"Wootton Bassett Express","geo":{"coordinates":{"longitude":-1.88753,"latitude":51.542}}}},{"location":{"id":"1280df2e-78a1-425e-bf2f-de61895178a3","name":"Windle Island Express","geo":{"coordinates":{"longitude":-2.76645,"latitude":53.46889}}}},{"location":{"id":"1295e9d4-e1ea-4831-afd0-f82a8286df83","name":"Kearsley Manchester Rd Express","geo":{"coordinates":{"longitude":-2.36763,"latitude":53.53707}}}},{"location":{"id":"12aa88a6-f387-42b5-955e-388e3988f906","name":"Broadway Express","geo":{"coordinates":{"longitude":0.65509,"latitude":51.54158}}}}]}