{"results":[{"location":{"id":"a084bcc9-c444-4dd7-bd1d-9293401611be","name":"Barnsley Extra","geo":{"coordinates":{"longitude":-1.43602,"latitude":53.54079}}}},{"location":{"id":"a09b6c84-8f7d-407f-a0e2-257ae02af85c","name":"Redditch Extra","geo":{"coordinates":{"longitude":-1.93666,"latitude":52.2883}}}},{"location":{"id":"a09e38c7-696d-4511-845b-725f1f3dd1c1","name":"Southall King St Express","geo":{"coordinates":{"longitude":-0.38315,"latitude":51.50051}}}},{"location":{"id":"a0a0b20b-5173-4067-bd46-f5ebee98a1c9","name":"Chelsea Esso Express","geo":{"coordinates":{"longitude":-0.18595,"latitude":51.48263}}}},{"location":{"id":"a0a68e0b-7800-4b76-bc7f-ed53c3f8e87b","name":"Stonycroft Queens Dr Esso Express","geo":{"coordinates":{"longitude":-2.91581,"latitude":53.42332}}}},{"location":{"id":"a0b3c49d-5b0a-4cc3-90ce-6616489d130a","name":"Huddersfld Wakefield Express","geo":{"coordinates":{"longitude":-1.75963,"latitude":53.64574}}}},{"location":{"id":"a0e185c8-8db9-4013-8082-fb9d51366cf1","name":"Basildon Langdon Hills Superstore","geo":{"coordinates":{"longitude":0.39923,"latitude":51.56772}}}},{"location":{"id":"a0ebd8c5-54e0-4811-a628-6902fa3ac3fc","name":"Dursley Cam Superstore","geo":{"coordinates":{"longitude":-2.36339,"latitude":51.70188}}}},{"location":{"id":"a0f9b5c9-7a35-45b5-ae90-a748785a2cdc","name":"Penge High St Express","geo":{"coordinates":{"longitude":-0.05501,"latitude":51.41604}}}},{"location":{"id":"a1167484-c58d-4af2-a2e3-813a888d5f66","name":"York Low Ousegate Express","geo":{"coordinates":{"longitude":-1.08271,"latitude":53.9575}}}},{"location":{"id":"a11badfb-d6a2-455b-9a3d-fa30645cbbfa","name":"Springhill Superstore","geo":{"coordinates":{"longitude":-5.69694,"latitude":54.65463}}}},{"location":{"id":"a187a0f7-1bec-4e6b-9895-b39f522691d0","name":"Fulham Munster Rd Express","geo":{"coordinates":{"longitude":-0.21263,"latitude":51.4812}}}},{"location":{"id":"a18dbcb5-0751-4402-b578-538e3bc50801","name":"Crowle Express","geo":{"coordinates":{"longitude":-0.83386,"latitude":53.60842}}}},{"location":{"id":"a199988a-d6ec-4c82-b042-e74eeaae03f5","name":"Leeds Bramley Superstore","geo":{"coordinates":{"longitude":-1.62626,"latitude":53.81148}}}},{"location":{"id":"a19c6661-ef01-42c7-affc-38fc60cb7f08","name":"Wellingborough Cannon St Express","geo":{"coordinates":{"longitude":-0.68865,"latitude":52.30592}}}},{"location":{"id":"a1d40915-8fd9-429e-8c24-0b142ad96747","name":"Southchurch Esso Express","geo":{"coordinates":{"longitude":0.73083,"latitude":51.5403}}}},{"location":{"id":"a1d52c78-0f2a-470e-86e7-438f768cf9f9","name":"St Enoch Metro","geo":{"coordinates":{"longitude":-4.25459,"latitude":55.85699}}}},{"location":{"id":"a1f91daf-8d3a-4fd4-9490-e0dbab1261e9","name":"Newmarket Extra","geo":{"coordinates":{"longitude":0.39634,"latitude":52.26091}}}},{"location":{"id":"a21c6e00-746c-4d8c-a50f-1903fbda1e64","name":"Castleford Express","geo":{"coordinates":{"longitude":-1.378571,"latitude":53.718166}}}},{"location":{"id":"a23a92c2-cfe7-4c95-97a8-bc3f7aa1524d","name":"Cardiff Tyn-y-parc Express","geo":{"coordinates":{"longitude":-3.2157,"latitude":51.51694}}}},{"location":{"id":"a24fc56f-a234-4d6a-8c0d-8a193540138f","name":"Manchester Oxford House Express","geo":{"coordinates":{"longitude":-2.23851,"latitude":53.47211}}}},{"location":{"id":"a25e7f9b-8ae8-4376-bfea-00a6b6cbb52e","name":"Camberwell Express","geo":{"coordinates":{"longitude":-0.09407,"latitude":51.48511}}}},{"location":{"id":"a27f8bf5-663e-417a-a7df-c20e03394dee","name":"Northwich Chester Rd Express","geo":{"coordinates":{"longitude":-2.52316,"latitude":53.25639}}}},{"location":{"id":"a2851056-2b5b-413f-b12b-54ee3784298c","name":"Liverpool Rd Irlam Express","geo":{"coordinates":{"longitude":-2.41339,"latitude":53.45098}}}},{"location":{"id":"a2922097-91f7-42f5-9b7a-c37cefc6ffa6","name":"West Brompton Express","geo":{"coordinates":{"longitude":-0.19309,"latitude":51.48844}}}},{"location":{"id":"a2977054-3de6-4e83-8634-91b2c2dde5aa","name":"Forestgate Esso Express","geo":{"coordinates":{"longitude":0.04328,"latitude":51.54897}}}},{"location":{"id":"a2989c8e-cd43-4d16-895f-bffab008cbe1","name":"March Broad St Express","geo":{"coordinates":{"longitude":0.08842,"latitude":52.55095}}}},{"location":{"id":"a2af0aed-7378-4100-a430-67430beb83df","name":"Cleethorpes Extra","geo":{"coordinates":{"longitude":-0.04534,"latitude":53.53916}}}},{"location":{"id":"a2caa7fe-3060-417c-bb7f-8ed6b01cfbb7","name":"Exminster Express","geo":{"coordinates":{"longitude":-3.49514,"latitude":50.67898}}}},{"location":{"id":"a2d79de9-c22a-47fd-8195-b8cd9a99149f","name":"Great Malvern Express","geo":{"coordinates":{"longitude":-2.30804,"latitude":52.11383}}}},{"location":{"id":"a2e5f9b9-5851-4b1b-b3d4-1854863e6643","name":"Brentwood Esso Express","geo":{"coordinates":{"longitude":0.29093,"latitude":51.61686}}}},{"location":{"id":"a2edf2a8-daf9-4534-b795-106fd787d0dc","name":"Bury Superstore","geo":{"coordinates":{"longitude":-2.29511,"latitude":53.59728}}}},{"location":{"id":"a30139ea-108d-4059-9382-06a7d305ed5f","name":"Sheffield Ecclesall Metro","geo":{"coordinates":{"longitude":-1.49352,"latitude":53.3691}}}},{"location":{"id":"a33781b6-e971-424f-9ae9-50250f6be39f","name":"Castleford Fryston Rd Express","geo":{"coordinates":{"longitude":-1.31477,"latitude":53.72424}}}},{"location":{"id":"a34a6346-6c51-4ea6-b31f-f284f24f83e2","name":"Westburn Esso Express","geo":{"coordinates":{"longitude":-4.34198,"latitude":55.87517}}}},{"location":{"id":"a3743861-3524-4e9e-a32b-1e76fc68f2fb","name":"Dumbarton Rd Express","geo":{"coordinates":{"longitude":-4.30235,"latitude":55.87066}}}},{"location":{"id":"a39ff9fb-e441-4b8f-bc32-88a796f7180e","name":"Ealing Metro","geo":{"coordinates":{"longitude":-0.30357,"latitude":51.51319}}}},{"location":{"id":"a3c20568-1441-4f5f-b2db-ab303a0c0f56","name":"Stratford Upon Avon Express","geo":{"coordinates":{"longitude":-1.70577,"latitude":52.193223}}}},{"location":{"id":"a3da41cd-d37a-4e6c-80d8-85f1cd17736f","name":"Bradford Extra","geo":{"coordinates":{"longitude":-1.78842,"latitude":53.78089}}}},{"location":{"id":"a3f02b42-d050-442b-8637-f6bee5e7a058","name":"Inverurie Harlaw Rd Extra","geo":{"coordinates":{"longitude":-2.37652,"latitude":57.28754}}}},{"location":{"id":"a3f36e63-f8f2-4d01-a966-f197540dba97","name":"Islington Express","geo":{"coordinates":{"longitude":-0.09103,"latitude":51.54341}}}},{"location":{"id":"a4155994-f9f0-40ad-bf96-2d7adfa75fc8","name":"Leicester Lutterworth Express","geo":{"coordinates":{"longitude":-1.15659,"latitude":52.60221}}}},{"location":{"id":"a45d1c8f-1096-4c46-b79a-16fea704b57c","name":"Grays Express","geo":{"coordinates":{"longitude":0.32963,"latitude":51.4981}}}},{"location":{"id":"a462ca2e-960a-4e7f-8e48-7b52fbf11429","name":"Eastbourne Hampden Park Metro","geo":{"coordinates":{"longitude":0.27832,"latitude":50.79724}}}},{"location":{"id":"a464fcc0-c54f-4126-9d91-adb637f6d58a","name":"Woking Guildford Rd Express","geo":{"coordinates":{"longitude":-0.56037,"latitude":51.31595}}}},{"location":{"id":"a4d97322-2379-4526-97b6-cdf03ace32e8","name":"Whitechapel Express","geo":{"coordinates":{"longitude":-0.06867,"latitude":51.51679}}}},{"location":{"id":"a4e55ec3-02b4-455f-b85e-ac406a4a239c","name":"Watford High St Express","geo":{"coordinates":{"longitude":-0.39506,"latitude":51.6546}}}},{"location":{"id":"a4e56846-d822-49e2-93d4-73af2579741b","name":"New North Rd Express","geo":{"coordinates":{"longitude":-0.09419,"latitude":51.53976}}}},{"location":{"id":"a4eb9527-8dd1-4954-bea1-144bdf6482fb","name":"Sheffield Dykes Hall Express","geo":{"coordinates":{"longitude":-1.50956,"latitude":53.4078}}}},{"location":{"id":"a4f0f7fe-4183-4cc3-8ff1-929016da2dea","name":"Baguley Extra","geo":{"coordinates":{"longitude":-2.29668,"latitude":53.40027}}}},{"location":{"id":"a4fc4245-6d60-4278-9090-3dace04abf4e","name":"Bognor Regis Express","geo":{"coordinates":{"longitude":-0.69237,"latitude":50.79898}}}},{"location":{"id":"a50beaef-4858-4c49-b494-c4d970ca0826","name":"Honiton Superstore","geo":{"coordinates":{"longitude":-3.20224,"latitude":50.79078}}}},{"location":{"id":"a5398f99-17de-4604-aefe-a3849d00c470","name":"York Goodramgate Express","geo":{"coordinates":{"longitude":-1.07983,"latitude":53.96064}}}},{"location":{"id":"a54f8da6-aa78-4a8c-b3f6-e09228b8c026","name":"Redfield Metro","geo":{"coordinates":{"longitude":-2.55347,"latitude":51.45959}}}},{"location":{"id":"a55ce9d9-1b68-4c59-9961-d7b7d37c5e96","name":"Hitchin Station Lyon Express","geo":{"coordinates":{"longitude":-0.26501,"latitude":51.95309}}}},{"location":{"id":"a587308b-e4d7-403d-be91-e0713ef94d97","name":"Bury St Edmunds Horringer Express","geo":{"coordinates":{"longitude":0.70433,"latitude":52.2385}}}},{"location":{"id":"a5896249-7f12-4b77-9440-60909d5ffd1d","name":"Week St Maidstone Express","geo":{"coordinates":{"longitude":0.5224,"latitude":51.27638}}}},{"location":{"id":"a58d14e5-e02e-4c76-95bc-09c8056d7915","name":"Wroughton Express","geo":{"coordinates":{"longitude":-1.79392,"latitude":51.52437}}}},{"location":{"id":"a5ac7327-3b7e-4a3e-8702-170dbdcf59ba","name":"Hammersmith Superstore","geo":{"coordinates":{"longitude":-0.22397,"latitude":51.49768}}}},{"location":{"id":"a5afb3d7-deb8-4238-a5f9-6798ab18c97e","name":"Solihull Extra","geo":{"coordinates":{"longitude":-1.78935,"latitude":52.38452}}}},{"location":{"id":"a5b59cd9-5c46-4afa-9375-735d333fa403","name":"Buxton Esso Express","geo":{"coordinates":{"longitude":-1.91056,"latitude":53.25054}}}},{"location":{"id":"a5bf8985-f091-4346-801a-a65c4d538557","name":"Scunthorpe Extra","geo":{"coordinates":{"longitude":-0.69671,"latitude":53.59054}}}},{"location":{"id":"a5c77788-effd-46c1-9857-6d064c1b7f83","name":"Langford Village Express","geo":{"coordinates":{"longitude":-1.13765,"latitude":51.8913}}}},{"location":{"id":"a5faf032-b8ae-4d73-890e-a69f163b508e","name":"Pentewan Road Express","geo":{"coordinates":{"longitude":-4.79306,"latitude":50.33342}}}},{"location":{"id":"a60f0b50-b13f-431d-a73a-4990fa95d880","name":"Seaford Express","geo":{"coordinates":{"longitude":0.10234,"latitude":50.77329}}}},{"location":{"id":"a612f1a0-8f6a-43c3-a1b6-d4b7391f33d4","name":"Sheepscar Esso Express","geo":{"coordinates":{"longitude":-1.52668,"latitude":53.81025}}}},{"location":{"id":"a62f6836-beb8-4635-80dc-bca03ba94f1d","name":"Catford Superstore","geo":{"coordinates":{"longitude":-0.02041,"latitude":51.44647}}}},{"location":{"id":"a689023c-07c8-4e7c-a7b6-c1e783e2b81c","name":"Enfield Ponders End Extra","geo":{"coordinates":{"longitude":-0.04759,"latitude":51.64795}}}},{"location":{"id":"a68adaa3-dc21-40fd-b82c-032200ac51fc","name":"Lerwick Superstore","geo":{"coordinates":{"longitude":-1.16125,"latitude":60.14717}}}},{"location":{"id":"a69adeb6-e29a-4f4f-a88f-b644813d32cb","name":"Aberdeen Extra","geo":{"coordinates":{"longitude":-2.14616,"latitude":57.17992}}}},{"location":{"id":"a6a68f50-5f0b-4a9d-a07c-a6f81b3ed570","name":"Plymouth Transit Way Superstore","geo":{"coordinates":{"longitude":-4.14945,"latitude":50.40997}}}},{"location":{"id":"a6dca73c-65eb-4210-a905-f0cb2d03eb9d","name":"Portslade Metro","geo":{"coordinates":{"longitude":-0.20701,"latitude":50.83414}}}},{"location":{"id":"a6e6e659-0edc-489c-9aff-e32d87bbddca","name":"Chiswell St Express","geo":{"coordinates":{"longitude":-0.08965,"latitude":51.52092}}}},{"location":{"id":"a73fae32-f0e1-4b98-ab87-17613f6b1e27","name":"Combe Down Esso Express","geo":{"coordinates":{"longitude":-2.36826,"latitude":51.35662}}}},{"location":{"id":"a748c597-fb42-4bd7-ae8e-40feb59826d8","name":"Warmley Deanery Rd Esso Express","geo":{"coordinates":{"longitude":-2.48083,"latitude":51.46056}}}},{"location":{"id":"a74dbbcf-88cf-4776-941a-e141d18d6042","name":"Waterlooville Express","geo":{"coordinates":{"longitude":-1.02733,"latitude":50.88529}}}},{"location":{"id":"a7511626-b783-451f-97a7-63594612c513","name":"Towcester Superstore","geo":{"coordinates":{"longitude":-0.99462,"latitude":52.13862}}}},{"location":{"id":"a75bd3f0-8483-4d3b-8a57-e75c4302d9e6","name":"Wirral Heswall Superstore","geo":{"coordinates":{"longitude":-3.10297,"latitude":53.32856}}}},{"location":{"id":"a75ca0c0-fca5-4bac-af55-45ddb2c2dd1e","name":"Eastwood Esso Express","geo":{"coordinates":{"longitude":0.64722,"latitude":51.57}}}},{"location":{"id":"a765afab-e46b-404e-a31f-a1892358c380","name":"Hampstead Belsize Rd Express","geo":{"coordinates":{"longitude":-0.17889,"latitude":51.54206}}}},{"location":{"id":"a7ac8b88-5c0e-4658-87ce-8631f2277699","name":"Alfreton Superstore","geo":{"coordinates":{"longitude":-1.38906,"latitude":53.09491}}}},{"location":{"id":"a7b3b738-a0c8-4e7f-b2a8-a5460c1de135","name":"Bo Ness Superstore","geo":{"coordinates":{"longitude":-3.60399,"latitude":56.01768}}}},{"location":{"id":"a7d84b9b-f5b9-4b91-9030-a1d4af644575","name":"Lake Hill Express","geo":{"coordinates":{"longitude":-1.16713,"latitude":50.65029}}}},{"location":{"id":"a7f2d93c-77f8-40a9-b78d-8908cee911e2","name":"Thurso Superstore","geo":{"coordinates":{"longitude":-3.51762,"latitude":58.59038}}}},{"location":{"id":"a80c3996-0021-4397-9acb-a7c7c063a06a","name":"Exeter Metro","geo":{"coordinates":{"longitude":-3.5309,"latitude":50.72406}}}},{"location":{"id":"a836a17c-0e0b-403b-9866-740a3e02bc1d","name":"Colney Express","geo":{"coordinates":{"longitude":-0.29645,"latitude":51.72489}}}},{"location":{"id":"a836cf29-a887-47a1-b288-b6729f3e835c","name":"Chester Sealand Rd Superstore","geo":{"coordinates":{"longitude":-2.91154,"latitude":53.19487}}}},{"location":{"id":"a8496a09-e9ae-458b-b40d-ecc8d563db63","name":"Shepton Mallet Superstore","geo":{"coordinates":{"longitude":-2.54964,"latitude":51.18725}}}},{"location":{"id":"a86d8f2e-f71b-40b9-bbd0-cc23e3b51604","name":"Southampton Way Express","geo":{"coordinates":{"longitude":-0.08142,"latitude":51.47788}}}},{"location":{"id":"a86ff26c-3fb8-4096-b37c-a6e328130a2f","name":"Dagenham Shafter Rd Express","geo":{"coordinates":{"longitude":0.16454,"latitude":51.54303}}}},{"location":{"id":"a887a03a-c12e-42e2-b63c-d7e996c6afed","name":"Uttoxeter New Rd Express","geo":{"coordinates":{"longitude":-1.87243,"latitude":52.90606}}}},{"location":{"id":"a8bcf659-d65b-4bb7-98ec-07ee90d48988","name":"Ewell Esso Express","geo":{"coordinates":{"longitude":-0.24907,"latitude":51.34506}}}},{"location":{"id":"a8e5ae73-657e-4540-9716-eb9d5d80e555","name":"Long Eaton Express","geo":{"coordinates":{"longitude":-1.29061,"latitude":52.8924}}}},{"location":{"id":"a8ed5adf-dc86-4a30-a550-e4b6f5bd7f3d","name":"Boar Ln Express","geo":{"coordinates":{"longitude":-1.54534,"latitude":53.79591}}}},{"location":{"id":"a95c3a10-cacb-4ade-a515-2ac455ed0c4b","name":"Milford Haven Superstore","geo":{"coordinates":{"longitude":-5.04247,"latitude":51.71559}}}},{"location":{"id":"a961946c-4a3a-4d99-9141-973d1bd9c5ab","name":"Newcastle Chillingham Rd Express","geo":{"coordinates":{"longitude":-1.57808,"latitude":54.98836}}}},{"location":{"id":"a9807e22-9e04-427b-8b7b-ed5a3a4ab0fa","name":"St Albans Metro","geo":{"coordinates":{"longitude":-0.33803,"latitude":51.75342}}}},{"location":{"id":"a980c696-8e5a-4cfa-b7f1-ae25d11b2912","name":"Leicester Bede Island Express","geo":{"coordinates":{"longitude":-1.14319,"latitude":52.62904}}}},{"location":{"id":"a99618c8-ee26-4bb3-ae1f-337ba2247c8c","name":"Windsor Bridge Express","geo":{"coordinates":{"longitude":-2.38207,"latitude":51.38487}}}},{"location":{"id":"a99c4e75-1478-47e6-bd8e-5e7f61b93415","name":"Holland Park Express","geo":{"coordinates":{"longitude":-0.20634,"latitude":51.50712}}}}]}