{"results":[{"location":{"id":"5dba5696-9fb4-46ab-9925-e662a3d03e32","name":"Eastcote Field End Rd Express","geo":{"coordinates":{"longitude":-0.39906,"latitude":51.57862}}}},{"location":{"id":"5e152ac0-ac95-44d3-b587-04c6fa6a5305","name":"Rothwell Leeds Rd Esso Express","geo":{"coordinates":{"longitude":-1.46626,"latitude":53.75536}}}},{"location":{"id":"5e1704d8-4b4a-48a0-89a5-cc91189b6e6a","name":"Battle Esso Express","geo":{"coordinates":{"longitude":0.49358,"latitude":50.91043}}}},{"location":{"id":"5e28c46d-90e7-4093-b874-816bfa1ae359","name":"Dudley Extra","geo":{"coordinates":{"longitude":-2.06637,"latitude":52.5146}}}},{"location":{"id":"5e35c6c9-cf73-4658-9edb-d53add13c6ca","name":"Colinton Superstore","geo":{"coordinates":{"longitude":-3.23862,"latitude":55.91142}}}},{"location":{"id":"5e4f2507-c084-4f8a-9cc0-297ee4dca0bf","name":"Trongate Express","geo":{"coordinates":{"longitude":-4.24878,"latitude":55.85725}}}},{"location":{"id":"5e567f4a-c657-4e9c-a63c-6eb153f2841e","name":"Blackburn Roe Lee Express","geo":{"coordinates":{"longitude":-2.47804,"latitude":53.76932}}}},{"location":{"id":"5e84e882-537d-4fcf-b149-7be276d4ff22","name":"Swiss Cottage Express","geo":{"coordinates":{"longitude":-0.175228,"latitude":51.544471}}}},{"location":{"id":"5e94573c-18de-4ac4-a3a2-459916afdc53","name":"Davidson Metro","geo":{"coordinates":{"longitude":-3.2742,"latitude":55.96615}}}},{"location":{"id":"5e976f72-1dc9-4602-99e7-4279e9b2bf9e","name":"East Rd Shoreditch Express","geo":{"coordinates":{"longitude":-0.08636,"latitude":51.52997}}}},{"location":{"id":"5e9b27bb-d5cc-4da1-b557-e49eed3f3dbd","name":"Stourport Superstore","geo":{"coordinates":{"longitude":-2.27478,"latitude":52.3389}}}},{"location":{"id":"5e9f1b00-19b6-4b2a-9905-887d94026456","name":"Chippenham Metro","geo":{"coordinates":{"longitude":-2.11412,"latitude":51.45962}}}},{"location":{"id":"5ed04485-5018-4eca-8aad-2235a33659c8","name":"Ashtead Craddocks Express","geo":{"coordinates":{"longitude":-0.30477,"latitude":51.31684}}}},{"location":{"id":"5ee4462f-37b4-4fd4-8cf5-1e09e293b678","name":"Clayton St Metro","geo":{"coordinates":{"longitude":-1.61615,"latitude":54.97316}}}},{"location":{"id":"5f2734fd-4136-4d6a-9c66-733397033e58","name":"Blackwater Darby Green Express","geo":{"coordinates":{"longitude":-0.79666,"latitude":51.33675}}}},{"location":{"id":"5f3b055e-f828-466d-b00f-609269b662d8","name":"Stourbridge Rd Express","geo":{"coordinates":{"longitude":-2.06263,"latitude":52.45301}}}},{"location":{"id":"5f5d81ef-d000-439b-bfb5-19a233e83ff6","name":"Yiewsley Superstore","geo":{"coordinates":{"longitude":-0.4765,"latitude":51.51591}}}},{"location":{"id":"5f70335b-e1b9-42d2-ba0c-b10abdc2c2eb","name":"Birmingham Corporation St Express","geo":{"coordinates":{"longitude":-1.89389,"latitude":52.48228}}}},{"location":{"id":"5f74b6e0-ccc8-410e-85c3-67378e00481d","name":"Brandon Metro","geo":{"coordinates":{"longitude":0.61824,"latitude":52.44412}}}},{"location":{"id":"5f97b94d-a453-4ba7-831e-0246543e7343","name":"Langport Metro","geo":{"coordinates":{"longitude":-2.82776,"latitude":51.03985}}}},{"location":{"id":"5fac9e68-24bf-463f-a698-c308c6dd59e2","name":"Ramsgate Manston Superstore","geo":{"coordinates":{"longitude":1.38857,"latitude":51.34039}}}},{"location":{"id":"5fafb0d3-8a58-4a31-a408-f2d19083f791","name":"Braintree Marks Farm Superstore","geo":{"coordinates":{"longitude":0.58274,"latitude":51.88075}}}},{"location":{"id":"5fc1c919-891e-45a8-82c4-eed97fd20132","name":"Whetstone Express","geo":{"coordinates":{"longitude":-0.16001,"latitude":51.62588}}}},{"location":{"id":"5fd194c7-ba24-4372-a439-ea128b2ec9b0","name":"Hethersett Express","geo":{"coordinates":{"longitude":1.17631,"latitude":52.60048}}}},{"location":{"id":"5fdbff52-3203-4096-9543-4857512d2e78","name":"Woodley Express","geo":{"coordinates":{"longitude":-0.88823,"latitude":51.4549}}}},{"location":{"id":"5fdfe5ee-8d1e-42c6-9d6f-5bf7c6fa94c9","name":"Kidderminster Comberton Hill Express","geo":{"coordinates":{"longitude":-2.24202,"latitude":52.3855}}}},{"location":{"id":"602b15b5-bf1c-490c-bd22-1f47e6ba7315","name":"Eccles Esso Express","geo":{"coordinates":{"longitude":-2.35878,"latitude":53.48079}}}},{"location":{"id":"60333d6d-47dc-4d30-8b36-9e3648288f3d","name":"Broughton Rd Superstore","geo":{"coordinates":{"longitude":-3.1964,"latitude":55.96345}}}},{"location":{"id":"6072b5a1-525a-4341-a43b-c5184d9808cc","name":"Middleton Rd Banbury Express","geo":{"coordinates":{"longitude":-1.32204,"latitude":52.06647}}}},{"location":{"id":"60989cc1-cd87-463b-8c29-452b6df606c0","name":"Birmingham Frankley Express","geo":{"coordinates":{"longitude":-1.99551,"latitude":52.40791}}}},{"location":{"id":"609d6d9b-1bdb-45a8-ad69-cd03c333e184","name":"Hayes Yeading Extra","geo":{"coordinates":{"longitude":-0.38503,"latitude":51.52477}}}},{"location":{"id":"60e135fc-d5f5-4630-b1b4-1fb4fa2c0419","name":"Mossley Hill Express","geo":{"coordinates":{"longitude":-2.91376,"latitude":53.3799}}}},{"location":{"id":"60e81b8b-2031-4ad2-a7db-a941320cfbab","name":"Deansgate Express","geo":{"coordinates":{"longitude":-2.24665,"latitude":53.48325}}}},{"location":{"id":"60ed6075-5d67-4a87-beb9-cf0d12fc6fcf","name":"Wilmslow Dean Row Rd Express","geo":{"coordinates":{"longitude":-2.21519,"latitude":53.33686}}}},{"location":{"id":"618d74e1-3ca9-4e84-b590-63922183ab00","name":"Crosby Coronation Rd Express","geo":{"coordinates":{"longitude":-3.02644,"latitude":53.491}}}},{"location":{"id":"61c03124-f540-4473-a9c2-84a44985bc8e","name":"Alresford Express","geo":{"coordinates":{"longitude":-1.16116,"latitude":51.09098}}}},{"location":{"id":"61da92a6-4426-4352-9089-b61e5582863e","name":"Farnborough Cove Rd Express","geo":{"coordinates":{"longitude":-0.7688,"latitude":51.29219}}}},{"location":{"id":"61f6d745-0fc5-437c-8bef-aca4a6a7f3d4","name":"Worcester Warndon Superstore","geo":{"coordinates":{"longitude":-2.17949,"latitude":52.19917}}}},{"location":{"id":"61f752e2-26dc-496a-bee4-dc643e59e8dc","name":"Bishopbriggs Express","geo":{"coordinates":{"longitude":-4.22789,"latitude":55.90287}}}},{"location":{"id":"61fb728a-8667-42e6-b66a-a2eaa9b323fd","name":"Greenwich Creek Rd Express","geo":{"coordinates":{"longitude":-0.022015,"latitude":51.480765}}}},{"location":{"id":"62219c05-b3dc-4b8f-a3c9-ded4e5ccfbbf","name":"Rustington Sterling Parade Express","geo":{"coordinates":{"longitude":-0.50776,"latitude":50.81014}}}},{"location":{"id":"629f79b2-9100-45b5-9150-ac61ff0bbd02","name":"Plymouth Metro","geo":{"coordinates":{"longitude":-4.14102,"latitude":50.37112}}}},{"location":{"id":"62a2fe53-70e9-4964-86c6-5023e9362d1d","name":"Hemel Hempstead Marlows Express","geo":{"coordinates":{"longitude":-0.47207,"latitude":51.75019}}}},{"location":{"id":"62b9bfca-234a-414a-af24-118b1dd52475","name":"Stanmore Esso Express","geo":{"coordinates":{"longitude":-0.29419,"latitude":51.59627}}}},{"location":{"id":"62d10357-7410-4c26-a29c-d1215b5e247a","name":"Fortune Green Rd Express","geo":{"coordinates":{"longitude":-0.19677,"latitude":51.55551}}}},{"location":{"id":"62e79380-d684-4f48-a79a-6e25ee85c6fe","name":"Chertsey Express","geo":{"coordinates":{"longitude":-0.50079,"latitude":51.38549}}}},{"location":{"id":"62e83b59-6749-4d20-93ff-8e0ee45c9d8c","name":"Charlton Express","geo":{"coordinates":{"longitude":-1.49778,"latitude":51.21945}}}},{"location":{"id":"6306fd7a-da60-43af-99b1-18ea1eac6a8c","name":"Fulwood Express","geo":{"coordinates":{"longitude":-2.67349,"latitude":53.78673}}}},{"location":{"id":"63282d73-57bc-4562-b46a-2b530e4d687b","name":"Bridgend Brewery Ln Superstore","geo":{"coordinates":{"longitude":-3.57946,"latitude":51.50901}}}},{"location":{"id":"6328da9b-2e78-4cd0-a4d5-53cc4dcc11c6","name":"Kennington Store","geo":{"coordinates":{"longitude":-0.113961,"latitude":51.486381}}}},{"location":{"id":"6335e143-085c-4575-b607-f7a5cc3043f5","name":"Benfleet Rd Express","geo":{"coordinates":{"longitude":0.54989,"latitude":51.56717}}}},{"location":{"id":"63363169-9d75-4696-968a-dd87670a7a33","name":"Warminster Thornhill Rd Express","geo":{"coordinates":{"longitude":-2.1974,"latitude":51.19996}}}},{"location":{"id":"633959b7-bc70-4582-8070-fc6c79b52d15","name":"Yeovil Abbey Manor Express","geo":{"coordinates":{"longitude":-2.66425,"latitude":50.95003}}}},{"location":{"id":"637b3e4a-8998-4ba7-96f9-ea06ec56fe01","name":"Didcot Superstore","geo":{"coordinates":{"longitude":-1.22144,"latitude":51.60507}}}},{"location":{"id":"639176dd-2c70-43e5-a76b-46ca236163ae","name":"Kirkwall Superstore","geo":{"coordinates":{"longitude":-2.96724,"latitude":58.98041}}}},{"location":{"id":"63945527-3818-438b-b57a-bc91eb91e546","name":"Hornsey Express","geo":{"coordinates":{"longitude":-0.11876,"latitude":51.56358}}}},{"location":{"id":"63e39bf0-b2f3-4496-81ee-9dbf9e1bc2b7","name":"Shirley W Wickham Esso Express","geo":{"coordinates":{"longitude":-0.0344,"latitude":51.37662}}}},{"location":{"id":"6407ec0d-9f7d-408a-8ebc-7213931dc092","name":"Chesterfield Esso Express","geo":{"coordinates":{"longitude":-1.44583,"latitude":53.25033}}}},{"location":{"id":"64098b45-0403-4e67-9e88-8ad82fede5c9","name":"West Norwood Express","geo":{"coordinates":{"longitude":-0.10334,"latitude":51.43383}}}},{"location":{"id":"644a80ae-f141-4873-8e2e-bb06859b0618","name":"Herne Bay Sea St Express","geo":{"coordinates":{"longitude":1.11392,"latitude":51.36987}}}},{"location":{"id":"6455350f-0145-4c28-827e-d196f3bfc843","name":"Hattersley Extra","geo":{"coordinates":{"longitude":-2.02383,"latitude":53.45336}}}},{"location":{"id":"646769b2-d4b5-4c21-ae73-8965b8eff6e1","name":"Gillingham Kent Extra","geo":{"coordinates":{"longitude":0.58331,"latitude":51.36761}}}},{"location":{"id":"64897a12-dd8b-46fe-a093-8056f2551178","name":"Lincoln St Marks Express","geo":{"coordinates":{"longitude":-0.54282,"latitude":53.22548}}}},{"location":{"id":"64bc72ac-daf4-485a-90e6-75de4b3d9f79","name":"Poundhill Express","geo":{"coordinates":{"longitude":-0.15527,"latitude":51.12731}}}},{"location":{"id":"64c1820a-67c3-48c5-93c8-9d68216941ba","name":"Clacton-on-sea Express","geo":{"coordinates":{"longitude":1.14084,"latitude":51.79389}}}},{"location":{"id":"64c2a4fd-6af9-4eeb-b524-c6294c4c0aa7","name":"Bath Wellsway Express","geo":{"coordinates":{"longitude":-2.36621,"latitude":51.37003}}}},{"location":{"id":"64d423e1-e41f-4fff-80a3-0165a10815b4","name":"Niddrie Express","geo":{"coordinates":{"longitude":-3.13688,"latitude":55.93278}}}},{"location":{"id":"64ed0913-b300-4d7f-ba31-f21e3b21a16b","name":"Wistaston Express","geo":{"coordinates":{"longitude":-2.45816,"latitude":53.08304}}}},{"location":{"id":"64f41d81-9139-4c61-a4b7-5051947347e8","name":"Stalybridge Superstore","geo":{"coordinates":{"longitude":-2.05309,"latitude":53.48244}}}},{"location":{"id":"6503d015-c08c-4be2-a18f-dcb6a7f67eaa","name":"Portsmouth Gunwharf Quays Express","geo":{"coordinates":{"longitude":-1.10369,"latitude":50.79581}}}},{"location":{"id":"6509c749-0505-4861-834b-2f04568aafd7","name":"Horsham Silver Wok Express","geo":{"coordinates":{"longitude":-0.31364,"latitude":51.05678}}}},{"location":{"id":"65204aef-ba66-428e-9925-df8e8baef72e","name":"Rothwell Express","geo":{"coordinates":{"longitude":-0.79983,"latitude":52.42315}}}},{"location":{"id":"65407264-9067-4fa5-88a0-da246875eab6","name":"New Cavendish Express","geo":{"coordinates":{"longitude":-0.14097,"latitude":51.52058}}}},{"location":{"id":"656129e3-cbdc-4cd3-8211-1b89406b14dd","name":"Abingdon Oxford Rd Express","geo":{"coordinates":{"longitude":-1.27532,"latitude":51.67741}}}},{"location":{"id":"656d30df-17d4-4b70-9736-aa7a3acc3701","name":"Blidworth Express","geo":{"coordinates":{"longitude":-1.11641,"latitude":53.09835}}}},{"location":{"id":"65adaa7c-037b-4510-9bfe-a96dfe37f10e","name":"Histon Express","geo":{"coordinates":{"longitude":0.10495,"latitude":52.25279}}}},{"location":{"id":"65b9783c-ba85-4e56-a91d-030562510c1e","name":"Angel Hill Express","geo":{"coordinates":{"longitude":-0.19352,"latitude":51.37526}}}},{"location":{"id":"65c4608e-37a2-4c11-8b93-5dca9ab55b16","name":"Sale Manor Ave Express","geo":{"coordinates":{"longitude":-2.3516,"latitude":53.41467}}}},{"location":{"id":"65d9a544-adc0-4d95-ae1e-b79740b23243","name":"Chalfont St Peter Esso Express","geo":{"coordinates":{"longitude":-0.55618,"latitude":51.61373}}}},{"location":{"id":"6622ca9d-154a-495c-ada8-767b08f2c569","name":"Beaumont Rd Express","geo":{"coordinates":{"longitude":-4.13264,"latitude":50.37206}}}},{"location":{"id":"6633c8de-e467-4dd5-bfb3-193112f7df06","name":"Bruntsfield Metro","geo":{"coordinates":{"longitude":-3.21065,"latitude":55.93412}}}},{"location":{"id":"6662d038-5a9d-43db-921d-0dd1588596ce","name":"Chellaston Derby Rd Express","geo":{"coordinates":{"longitude":-1.43939,"latitude":52.86974}}}},{"location":{"id":"66636c80-95b1-46d1-9859-81f59e00e76e","name":"Paignton Express","geo":{"coordinates":{"longitude":-3.56762,"latitude":50.43543}}}},{"location":{"id":"66892e6c-e45d-48aa-ac41-a3932f6dcb80","name":"London Road Southampton Express","geo":{"coordinates":{"longitude":-1.4037,"latitude":50.91167}}}},{"location":{"id":"66985bca-c4c7-4cbb-b1ec-c6f9a885f0a7","name":"West Ealing Express","geo":{"coordinates":{"longitude":-0.31828,"latitude":51.51121}}}},{"location":{"id":"66ac4ec5-12cb-48d4-91bb-864c461a3dff","name":"Shoreditch Commercial St Express","geo":{"coordinates":{"longitude":-0.07447,"latitude":51.52062}}}},{"location":{"id":"66ad163b-d584-420e-891f-8aa68fcabcd2","name":"North Petherton Express","geo":{"coordinates":{"longitude":-3.01447,"latitude":51.09255}}}},{"location":{"id":"66d43bda-1a9e-4f40-8c70-c4123234f588","name":"Margate Metro","geo":{"coordinates":{"longitude":1.40385,"latitude":51.3865}}}},{"location":{"id":"66dd7bcc-23f0-41cc-9eda-43edf6a3fc05","name":"Reading Shinfield Express","geo":{"coordinates":{"longitude":-0.94553,"latitude":51.42834}}}},{"location":{"id":"66eff74e-1bfe-475e-bc45-39951f5a24f6","name":"Horsforth New Rd Express","geo":{"coordinates":{"longitude":-1.64037,"latitude":53.83177}}}},{"location":{"id":"670f2b55-5d9f-40f7-aff0-6c0e2cc65830","name":"Caversham Esso Express","geo":{"coordinates":{"longitude":-0.97523,"latitude":51.46787}}}},{"location":{"id":"674f9ef6-3097-458b-a1f9-c62ede889ec2","name":"Romford Fairview Express","geo":{"coordinates":{"longitude":0.17567,"latitude":51.57814}}}},{"location":{"id":"67524388-552e-4dbd-92ad-97917edbcc21","name":"East Ham Katherine Rd Express","geo":{"coordinates":{"longitude":0.03875,"latitude":51.54078}}}},{"location":{"id":"675654b2-793e-4c87-9e0b-27691615cb0c","name":"Newquay East Street Express","geo":{"coordinates":{"longitude":-5.07899,"latitude":50.41399}}}},{"location":{"id":"675c0e2c-ca74-4e6e-b5fe-4fa4ab933102","name":"Southgate Bramley Rd Esso Express","geo":{"coordinates":{"longitude":-0.13014,"latitude":51.64806}}}},{"location":{"id":"6763a4a4-1cff-4f8c-b3c1-d669a610c052","name":"Hull Newland Ave Express","geo":{"coordinates":{"longitude":-0.35881,"latitude":53.76793}}}},{"location":{"id":"6780ab30-cbfc-424d-bbe8-5884a0a4f18b","name":"Taunton Superstore","geo":{"coordinates":{"longitude":-3.11167,"latitude":51.01529}}}},{"location":{"id":"6784fd72-510c-4327-a16c-72ced170ebbe","name":"Portishead W Hill Express","geo":{"coordinates":{"longitude":-2.78152,"latitude":51.48227}}}},{"location":{"id":"678a26c6-c291-4ab7-9874-75d957c04a31","name":"Little Chalfont Express","geo":{"coordinates":{"longitude":-0.56363,"latitude":51.66687}}}},{"location":{"id":"678c85ad-8d47-4aae-879c-373000a00467","name":"Birmingham Bristol Rd Express","geo":{"coordinates":{"longitude":-1.93431,"latitude":52.4454}}}}]}